{"type": "FeatureCollection", "features": [{"type": "Feature", "geometry": {"type": "Point", "coordinates": [-160.235, 21.87]}, "properties": {"harcon_id": "1612340", "id": "1610367", "name": "Nonopapa, Niihau Island", "state": "HI"}, "id": 0}, {"type": "Feature", "geometry": {"type": "Point", "coordinates": [-159.592, 21.9033]}, "properties": {"harcon_id": "1611400", "id": "1611347", "name": "Port Allen, Hanapepe Bay", "state": "HI"}, "id": 1}, {"type": "Feature", "geometry": {"type": "Point", "coordinates": [-159.3561, 21.9544]}, "properties": {"harcon_id": "1611400", "id": "1611400", "name": "NAWILIWILI", "state": "HI"}, "id": 2}, {"type": "Feature", "geometry": {"type": "Point", "coordinates": [-159.673, 21.9567]}, "properties": {"harcon_id": "1611400", "id": "1611401", "name": "Waimea Bay", "state": "HI"}, "id": 3}, {"type": "Feature", "geometry": {"type": "Point", "coordinates": [-159.335, 21.995]}, "properties": {"harcon_id": "1611400", "id": "1611443", "name": "Hanamaulu Bay", "state": "HI"}, "id": 4}, {"type": "Feature", "geometry": {"type": "Point", "coordinates": [-159.502, 22.215]}, "properties": {"harcon_id": "1611400", "id": "1611683", "name": "Hanalei Bay", "state": "HI"}, "id": 5}, {"type": "Feature", "geometry": {"type": "Point", "coordinates": [-157.697, 21.275]}, "properties": {"harcon_id": "1612340", "id": "1612301", "name": "Hanauma Bay", "state": "HI"}, "id": 6}, {"type": "Feature", "geometry": {"type": "Point", "coordinates": [-157.867, 21.30669444444445]}, "properties": {"harcon_id": "1612340", "id": "1612340", "name": "HONOLULU", "state": "HI"}, "id": 7}, {"type": "Feature", "geometry": {"type": "Point", "coordinates": [-157.967, 21.33]}, "properties": {"harcon_id": "1612340", "id": "1612366", "name": "Pearl Harbor Entrance, Bishop Point", "state": "HI"}, "id": 8}, {"type": "Feature", "geometry": {"type": "Point", "coordinates": [-157.693, 21.335]}, "properties": {"harcon_id": "1612480", "id": "1612376", "name": "Waimanalo", "state": "HI"}, "id": 9}, {"type": "Feature", "geometry": {"type": "Point", "coordinates": [-157.94, 21.3683]}, "properties": {"harcon_id": "1612340", "id": "1612404", "name": "Pearl Harbor, Ford Island Ferry", "state": "HI"}, "id": 10}, {"type": "Feature", "geometry": {"type": "Point", "coordinates": [-157.79, 21.43305555555556]}, "properties": {"harcon_id": "1612480", "id": "1612480", "name": "MOKU O LOE", "state": "HI"}, "id": 11}, {"type": "Feature", "geometry": {"type": "Point", "coordinates": [-158.192, 21.445]}, "properties": {"harcon_id": "1612340", "id": "1612482", "name": "Waianae", "state": "HI"}, "id": 12}, {"type": "Feature", "geometry": {"type": "Point", "coordinates": [-158.108, 21.5983]}, "properties": {"harcon_id": "1612340", "id": "1612668", "name": "Haleiwa, Waialua Bay", "state": "HI"}, "id": 13}, {"type": "Feature", "geometry": {"type": "Point", "coordinates": [-156.877, 21.0483]}, "properties": {"harcon_id": "1612340", "id": "1613077", "name": "Kamalo Harbor", "state": "HI"}, "id": 14}, {"type": "Feature", "geometry": {"type": "Point", "coordinates": [-156.8, 21.0717]}, "properties": {"harcon_id": "1612340", "id": "1613155", "name": "Pukoo Harbor", "state": "HI"}, "id": 15}, {"type": "Feature", "geometry": {"type": "Point", "coordinates": [-157.032, 21.085]}, "properties": {"harcon_id": "1612340", "id": "1613198", "name": "Kaunakakai", "state": "HI"}, "id": 16}, {"type": "Feature", "geometry": {"type": "Point", "coordinates": [-157.197, 21.0933]}, "properties": {"harcon_id": "1612340", "id": "1613226", "name": "Kolo", "state": "HI"}, "id": 17}, {"type": "Feature", "geometry": {"type": "Point", "coordinates": [-156.995, 20.79]}, "properties": {"harcon_id": "1612340", "id": "1614465", "name": "Kaumalapau, Lanai Island", "state": "HI"}, "id": 18}, {"type": "Feature", "geometry": {"type": "Point", "coordinates": [-156.445, 20.6567]}, "properties": {"harcon_id": "1615680", "id": "1615202", "name": "Makena", "state": "HI"}, "id": 19}, {"type": "Feature", "geometry": {"type": "Point", "coordinates": [-155.987, 20.7617]}, "properties": {"harcon_id": "1615680", "id": "1615395", "name": "Hana", "state": "HI"}, "id": 20}, {"type": "Feature", "geometry": {"type": "Point", "coordinates": [-156.4766944444444, 20.895]}, "properties": {"harcon_id": "1615680", "id": "1615680", "name": "KAHULUI", "state": "HI"}, "id": 21}, {"type": "Feature", "geometry": {"type": "Point", "coordinates": [-156.607, 20.595]}, "properties": {"harcon_id": "1612340", "id": "1616696", "name": "Kuheia Bay", "state": "HI"}, "id": 22}, {"type": "Feature", "geometry": {"type": "Point", "coordinates": [-155.903, 20.1867]}, "properties": {"harcon_id": "1617760", "id": "1617277", "name": "Mahukona", "state": "HI"}, "id": 23}, {"type": "Feature", "geometry": {"type": "Point", "coordinates": [-155.8294, 20.0366]}, "properties": {"harcon_id": "1617760", "id": "1617433", "name": "Kawaihae", "state": "HI"}, "id": 24}, {"type": "Feature", "geometry": {"type": "Point", "coordinates": [-155.0555555555555, 19.73027777777778]}, "properties": {"harcon_id": "1617760", "id": "1617760", "name": "HILO", "state": "HI"}, "id": 25}, {"type": "Feature", "geometry": {"type": "Point", "coordinates": [-156.0, 19.6433]}, "properties": {"harcon_id": "1617760", "id": "1617846", "name": "Kailua Kona", "state": "HI"}, "id": 26}, {"type": "Feature", "geometry": {"type": "Point", "coordinates": [-155.922, 19.4767]}, "properties": {"harcon_id": "1617760", "id": "1618021", "name": "Napoopoo, Kealakekua Bay", "state": "HI"}, "id": 27}, {"type": "Feature", "geometry": {"type": "Point", "coordinates": [-155.553, 19.0883]}, "properties": {"harcon_id": "1617760", "id": "1618578", "name": "Honuapo", "state": "HI"}, "id": 28}, {"type": "Feature", "geometry": {"type": "Point", "coordinates": [-169.53, 16.7383]}, "properties": {"harcon_id": "1619000", "id": "1619000", "name": "JOHNSTON ATOLL", "state": ""}, "id": 29}, {"type": "Feature", "geometry": {"type": "Point", "coordinates": [-166.208, 23.7833]}, "properties": {"harcon_id": "1612340", "id": "1619222", "name": "East Island, French Frigate Shoals", "state": "HI"}, "id": 30}, {"type": "Feature", "geometry": {"type": "Point", "coordinates": [-171.75, 25.7667]}, "properties": {"harcon_id": "1612340", "id": "1619645", "name": "Laysan Island", "state": "HI"}, "id": 31}, {"type": "Feature", "geometry": {"type": "Point", "coordinates": [-177.36, 28.2117]}, "properties": {"harcon_id": "1619910", "id": "1619910", "name": "SAND ISLAND, MIDWAY ISLANDS", "state": ""}, "id": 32}, {"type": "Feature", "geometry": {"type": "Point", "coordinates": [144.6563611111111, 13.44338888888889]}, "properties": {"harcon_id": "1630000", "id": "1630000", "name": "APRA HARBOR, GUAM", "state": ""}, "id": 33}, {"type": "Feature", "geometry": {"type": "Point", "coordinates": [144.7969444, 13.4283333]}, "properties": {"harcon_id": "1631428", "id": "1631428", "name": "Pago Bay, Guam", "state": ""}, "id": 34}, {"type": "Feature", "geometry": {"type": "Point", "coordinates": [145.737, 15.2267]}, "properties": {"harcon_id": "1633227", "id": "1633227", "name": "Tanapag Harbor, Saipan Island", "state": ""}, "id": 35}, {"type": "Feature", "geometry": {"type": "Point", "coordinates": [-149.572, -17.535]}, "properties": {"harcon_id": "1732417", "id": "1732417", "name": "Papeete Harbor, Fare Ute Point", "state": ""}, "id": 36}, {"type": "Feature", "geometry": {"type": "Point", "coordinates": [-170.6894444, -14.2766667]}, "properties": {"harcon_id": "1770000", "id": "1770000", "name": "PAGO PAGO Harbor, Tutuila Island", "state": ""}, "id": 37}, {"type": "Feature", "geometry": {"type": "Point", "coordinates": [-171.767, -13.80830555555556]}, "properties": {"harcon_id": "1778000", "id": "1778000", "name": "APIA (Observatory), Upolu Island", "state": ""}, "id": 38}, {"type": "Feature", "geometry": {"type": "Point", "coordinates": [-157.477, 1.985]}, "properties": {"harcon_id": "1612340", "id": "1814060", "name": "Christmas Island", "state": ""}, "id": 39}, {"type": "Feature", "geometry": {"type": "Point", "coordinates": [167.7361145019531, 8.731666564941406]}, "properties": {"harcon_id": "1820000", "id": "1820000", "name": "KWAJALEIN ATOLL (Kwajalein I.)", "state": ""}, "id": 40}, {"type": "Feature", "geometry": {"type": "Point", "coordinates": [151.847, 7.44667]}, "properties": {"harcon_id": "1840000", "id": "1840000", "name": "CHUUK, Moen Island", "state": ""}, "id": 41}, {"type": "Feature", "geometry": {"type": "Point", "coordinates": [134.463, 7.33]}, "properties": {"harcon_id": "1841275", "id": "1841275", "name": "MALAKAL HARBOR", "state": ""}, "id": 42}, {"type": "Feature", "geometry": {"type": "Point", "coordinates": [166.6175833333333, 19.29066666666667]}, "properties": {"harcon_id": "1890000", "id": "1890000", "name": "WAKE ISLAND (U.S.)", "state": ""}, "id": 43}, {"type": "Feature", "geometry": {"type": "Point", "coordinates": [178.425, -18.1333]}, "properties": {"harcon_id": "1910000", "id": "1910000", "name": "SUVA HARBOR, Viti Levu Island", "state": ""}, "id": 44}, {"type": "Feature", "geometry": {"type": "Point", "coordinates": [-64.70330555555556, 32.37338888888889]}, "properties": {"harcon_id": "2695540", "id": "2695540", "name": "St. Georges Island", "state": ""}, "id": 45}, {"type": "Feature", "geometry": {"type": "Point", "coordinates": [-130.2166666666667, 54.71666666666667]}, "properties": {"harcon_id": "9450460", "id": "8218361", "name": "Kumeon Bay, B.C.", "state": ""}, "id": 46}, {"type": "Feature", "geometry": {"type": "Point", "coordinates": [-130.6166666666667, 54.71666666666667]}, "properties": {"harcon_id": "9450460", "id": "8218362", "name": "Haystack Island, B.C.", "state": ""}, "id": 47}, {"type": "Feature", "geometry": {"type": "Point", "coordinates": [-130.55, 54.76666666666667]}, "properties": {"harcon_id": "9450460", "id": "8218447", "name": "Wales Island (Cannery), Pearse Canal", "state": ""}, "id": 48}, {"type": "Feature", "geometry": {"type": "Point", "coordinates": [-129.9, 55.0]}, "properties": {"harcon_id": "9450460", "id": "8218617", "name": "Mill Bay, Nass River, B.C.", "state": ""}, "id": 49}, {"type": "Feature", "geometry": {"type": "Point", "coordinates": [-129.8, 55.91666666666666]}, "properties": {"harcon_id": "9450460", "id": "8219894", "name": "Stewart, B.C.", "state": ""}, "id": 50}, {"type": "Feature", "geometry": {"type": "Point", "coordinates": [-67.1083, 44.87]}, "properties": {"harcon_id": "8410140", "id": "8410714", "name": "Coffins Point", "state": "ME"}, "id": 51}, {"type": "Feature", "geometry": {"type": "Point", "coordinates": [-67.13, 44.9233]}, "properties": {"harcon_id": "8410140", "id": "8410715", "name": "Garnet Point, Pennamquan River", "state": "ME"}, "id": 52}, {"type": "Feature", "geometry": {"type": "Point", "coordinates": [-67.1583, 44.875]}, "properties": {"harcon_id": "8410140", "id": "8410875", "name": "Birch Islands", "state": "ME"}, "id": 53}, {"type": "Feature", "geometry": {"type": "Point", "coordinates": [-67.20466613769531, 44.65702819824219]}, "properties": {"harcon_id": "8410140", "id": "8411060", "name": "Cutler, Little River", "state": "ME"}, "id": 54}, {"type": "Feature", "geometry": {"type": "Point", "coordinates": [-67.2967, 44.6417]}, "properties": {"harcon_id": "8410140", "id": "8411250", "name": "Cutler, Naval Radio Station", "state": "ME"}, "id": 55}, {"type": "Feature", "geometry": {"type": "Point", "coordinates": [-67.3683, 44.6033]}, "properties": {"harcon_id": "8410140", "id": "8411411", "name": "Stone Island, Machias Bay", "state": "ME"}, "id": 56}, {"type": "Feature", "geometry": {"type": "Point", "coordinates": [-67.3933, 44.6983]}, "properties": {"harcon_id": "8410140", "id": "8411467", "name": "Machiasport, Machias River", "state": "ME"}, "id": 57}, {"type": "Feature", "geometry": {"type": "Point", "coordinates": [-67.4967, 44.615]}, "properties": {"harcon_id": "8410140", "id": "8411696", "name": "Shoppee Point, Englishman Bay", "state": "ME"}, "id": 58}, {"type": "Feature", "geometry": {"type": "Point", "coordinates": [-67.5433, 44.4933]}, "properties": {"harcon_id": "8418150", "id": "8411801", "name": "Steele Harbor Island", "state": "ME"}, "id": 59}, {"type": "Feature", "geometry": {"type": "Point", "coordinates": [-67.87, 44.3717]}, "properties": {"harcon_id": "8418150", "id": "8412568", "name": "Green Island, Petit Manan Bar", "state": "ME"}, "id": 60}, {"type": "Feature", "geometry": {"type": "Point", "coordinates": [-67.875, 44.54]}, "properties": {"harcon_id": "8418150", "id": "8412581", "name": "Millbridge, Narraguagus River, Maine", "state": "ME"}, "id": 61}, {"type": "Feature", "geometry": {"type": "Point", "coordinates": [-68.0217, 44.4]}, "properties": {"harcon_id": "8418150", "id": "8412932", "name": "Prospect Harbor", "state": "ME"}, "id": 62}, {"type": "Feature", "geometry": {"type": "Point", "coordinates": [-68.0867, 44.3883]}, "properties": {"harcon_id": "8413320", "id": "8413079", "name": "Winter Harbor, Frenchman Bay", "state": "ME"}, "id": 63}, {"type": "Feature", "geometry": {"type": "Point", "coordinates": [-68.20427777777778, 44.39219444444444]}, "properties": {"harcon_id": "8413320", "id": "8413320", "name": "BAR HARBOR", "state": "ME"}, "id": 64}, {"type": "Feature", "geometry": {"type": "Point", "coordinates": [-68.3133, 44.275]}, "properties": {"harcon_id": "8413320", "id": "8413564", "name": "Southwest Harbor", "state": "ME"}, "id": 65}, {"type": "Feature", "geometry": {"type": "Point", "coordinates": [-68.3533, 44.2417]}, "properties": {"harcon_id": "8413320", "id": "8413651", "name": "Bass Harbor", "state": "ME"}, "id": 66}, {"type": "Feature", "geometry": {"type": "Point", "coordinates": [-68.4217, 44.535]}, "properties": {"harcon_id": "8413320", "id": "8413801", "name": "Ellsworth, Union River", "state": "ME"}, "id": 67}, {"type": "Feature", "geometry": {"type": "Point", "coordinates": [-68.45, 44.145]}, "properties": {"harcon_id": "8413320", "id": "8413857", "name": "Burnt Coat Harbor, Swans Island", "state": "ME"}, "id": 68}, {"type": "Feature", "geometry": {"type": "Point", "coordinates": [-68.5633, 44.4083]}, "properties": {"harcon_id": "8413320", "id": "8414112", "name": "Blue Hill Harbor", "state": "ME"}, "id": 69}, {"type": "Feature", "geometry": {"type": "Point", "coordinates": [-68.5867, 44.2633]}, "properties": {"harcon_id": "8413320", "id": "8414168", "name": "Center Harbor", "state": "ME"}, "id": 70}, {"type": "Feature", "geometry": {"type": "Point", "coordinates": [-68.6367, 44.0733]}, "properties": {"harcon_id": "8413320", "id": "8414288", "name": "Isle Au Haut", "state": "ME"}, "id": 71}, {"type": "Feature", "geometry": {"type": "Point", "coordinates": [-68.6617, 44.1533]}, "properties": {"harcon_id": "8413320", "id": "8414348", "name": "Stonington, Deer Isle", "state": "ME"}, "id": 72}, {"type": "Feature", "geometry": {"type": "Point", "coordinates": [-68.6933, 44.2917]}, "properties": {"harcon_id": "8413320", "id": "8414424", "name": "Little Deer Isle", "state": "ME"}, "id": 73}, {"type": "Feature", "geometry": {"type": "Point", "coordinates": [-68.7583, 44.5367]}, "properties": {"harcon_id": "8413320", "id": "8414581", "name": "Gross Point, Eastern Channel", "state": "ME"}, "id": 74}, {"type": "Feature", "geometry": {"type": "Point", "coordinates": [-68.7667, 44.785]}, "properties": {"harcon_id": "8413320", "id": "8414612", "name": "Bangor", "state": "ME"}, "id": 75}, {"type": "Feature", "geometry": {"type": "Point", "coordinates": [-68.7967, 44.3867]}, "properties": {"harcon_id": "8413320", "id": "8414672", "name": "Castine", "state": "ME"}, "id": 76}, {"type": "Feature", "geometry": {"type": "Point", "coordinates": [-68.8017, 44.5717]}, "properties": {"harcon_id": "8413320", "id": "8414684", "name": "Bucksport", "state": "ME"}, "id": 77}, {"type": "Feature", "geometry": {"type": "Point", "coordinates": [-68.805, 44.505]}, "properties": {"harcon_id": "8413320", "id": "8414692", "name": "Sandy Point", "state": "ME"}, "id": 78}, {"type": "Feature", "geometry": {"type": "Point", "coordinates": [-68.84, 44.0433]}, "properties": {"harcon_id": "8413320", "id": "8414776", "name": "Vinalhaven, Vinalhaven Island", "state": "ME"}, "id": 79}, {"type": "Feature", "geometry": {"type": "Point", "coordinates": [-68.8417, 44.6367]}, "properties": {"harcon_id": "8413320", "id": "8414781", "name": "Winterport", "state": "ME"}, "id": 80}, {"type": "Feature", "geometry": {"type": "Point", "coordinates": [-68.8733, 44.1267]}, "properties": {"harcon_id": "8413320", "id": "8414856", "name": "North Haven", "state": "ME"}, "id": 81}, {"type": "Feature", "geometry": {"type": "Point", "coordinates": [-68.8817, 43.8617]}, "properties": {"harcon_id": "8413320", "id": "8414876", "name": "Matinicus Harbor, Wheaton Island", "state": "ME"}, "id": 82}, {"type": "Feature", "geometry": {"type": "Point", "coordinates": [-68.8867, 44.1567]}, "properties": {"harcon_id": "8414888", "id": "8414888", "name": "Pulpit Harbor, North Haven Island", "state": "ME"}, "id": 83}, {"type": "Feature", "geometry": {"type": "Point", "coordinates": [-69.005, 44.4267]}, "properties": {"harcon_id": "8413320", "id": "8415191", "name": "Belfast", "state": "ME"}, "id": 84}, {"type": "Feature", "geometry": {"type": "Point", "coordinates": [-69.1017, 44.105]}, "properties": {"harcon_id": "8413320", "id": "8415490", "name": "Rockland", "state": "ME"}, "id": 85}, {"type": "Feature", "geometry": {"type": "Point", "coordinates": [-69.1817, 44.0717]}, "properties": {"harcon_id": "8418150", "id": "8415709", "name": "Thomaston", "state": "ME"}, "id": 86}, {"type": "Feature", "geometry": {"type": "Point", "coordinates": [-69.2167, 43.965]}, "properties": {"harcon_id": "8418150", "id": "8415809", "name": "Tenants Harbor", "state": "ME"}, "id": 87}, {"type": "Feature", "geometry": {"type": "Point", "coordinates": [-69.2367, 43.9867]}, "properties": {"harcon_id": "8418150", "id": "8415867", "name": "Otis Cove", "state": "ME"}, "id": 88}, {"type": "Feature", "geometry": {"type": "Point", "coordinates": [-69.26, 43.925]}, "properties": {"harcon_id": "8418150", "id": "8415933", "name": "Port Clyde", "state": "ME"}, "id": 89}, {"type": "Feature", "geometry": {"type": "Point", "coordinates": [-69.295, 43.8717]}, "properties": {"harcon_id": "8418150", "id": "8416028", "name": "Burnt Island, Georges Islands", "state": "ME"}, "id": 90}, {"type": "Feature", "geometry": {"type": "Point", "coordinates": [-69.3217, 43.765]}, "properties": {"harcon_id": "8418150", "id": "8416092", "name": "Monhegan Island", "state": "ME"}, "id": 91}, {"type": "Feature", "geometry": {"type": "Point", "coordinates": [-69.3417, 43.97]}, "properties": {"harcon_id": "8418150", "id": "8416141", "name": "Friendship Harbor", "state": "ME"}, "id": 92}, {"type": "Feature", "geometry": {"type": "Point", "coordinates": [-69.3767, 44.0933]}, "properties": {"harcon_id": "8418150", "id": "8416224", "name": "Waldoboro", "state": "ME"}, "id": 93}, {"type": "Feature", "geometry": {"type": "Point", "coordinates": [-69.38, 44.015]}, "properties": {"harcon_id": "8418150", "id": "8416232", "name": "Jones Neck", "state": "ME"}, "id": 94}, {"type": "Feature", "geometry": {"type": "Point", "coordinates": [-69.4417, 43.9667]}, "properties": {"harcon_id": "8418150", "id": "8416381", "name": "Muscongus Harbor, Muscongus Sound", "state": "ME"}, "id": 95}, {"type": "Feature", "geometry": {"type": "Point", "coordinates": [-69.4917, 43.875]}, "properties": {"harcon_id": "8418150", "id": "8416501", "name": "New Harbor, Muscongus Bay", "state": "ME"}, "id": 96}, {"type": "Feature", "geometry": {"type": "Point", "coordinates": [-69.525, 43.8767]}, "properties": {"harcon_id": "8418150", "id": "8416581", "name": "Pemaquid Harbor, Johns Bay", "state": "ME"}, "id": 97}, {"type": "Feature", "geometry": {"type": "Point", "coordinates": [-69.5367, 44.0333]}, "properties": {"harcon_id": "8418150", "id": "8416608", "name": "Newcastle", "state": "ME"}, "id": 98}, {"type": "Feature", "geometry": {"type": "Point", "coordinates": [-69.5833, 43.865]}, "properties": {"harcon_id": "8418150", "id": "8416721", "name": "East Boothbay", "state": "ME"}, "id": 99}, {"type": "Feature", "geometry": {"type": "Point", "coordinates": [-69.615, 43.7583]}, "properties": {"harcon_id": "8418150", "id": "8416796", "name": "Damariscove Harbor, Damariscove Island", "state": "ME"}, "id": 100}, {"type": "Feature", "geometry": {"type": "Point", "coordinates": [-69.6183, 44.05]}, "properties": {"harcon_id": "8418150", "id": "8416804", "name": "Sheepscot (below rapids)", "state": "ME"}, "id": 101}, {"type": "Feature", "geometry": {"type": "Point", "coordinates": [-69.6283, 43.85]}, "properties": {"harcon_id": "8418150", "id": "8416828", "name": "Boothbay Harbor", "state": "ME"}, "id": 102}, {"type": "Feature", "geometry": {"type": "Point", "coordinates": [-69.6617, 43.8467]}, "properties": {"harcon_id": "8418150", "id": "8416908", "name": "Southport, Townsend Gut", "state": "ME"}, "id": 103}, {"type": "Feature", "geometry": {"type": "Point", "coordinates": [-69.6667, 44.0]}, "properties": {"harcon_id": "8418150", "id": "8416921", "name": "Wiscasset", "state": "ME"}, "id": 104}, {"type": "Feature", "geometry": {"type": "Point", "coordinates": [-69.67, 43.925]}, "properties": {"harcon_id": "8418150", "id": "8416928", "name": "Cross River entrance", "state": "ME"}, "id": 105}, {"type": "Feature", "geometry": {"type": "Point", "coordinates": [-69.6833, 43.9583]}, "properties": {"harcon_id": "8418150", "id": "8416961", "name": "Back River", "state": "ME"}, "id": 106}, {"type": "Feature", "geometry": {"type": "Point", "coordinates": [-69.6867, 43.86]}, "properties": {"harcon_id": "8418150", "id": "8416968", "name": "Isle of Springs", "state": "ME"}, "id": 107}, {"type": "Feature", "geometry": {"type": "Point", "coordinates": [-69.7333, 43.8533]}, "properties": {"harcon_id": "8418150", "id": "8417067", "name": "Robinhood, Sasanoa River", "state": "ME"}, "id": 108}, {"type": "Feature", "geometry": {"type": "Point", "coordinates": [-69.7633, 43.8867]}, "properties": {"harcon_id": "8418150", "id": "8417127", "name": "Mill Point, Sasanoa River", "state": "ME"}, "id": 109}, {"type": "Feature", "geometry": {"type": "Point", "coordinates": [-69.7667, 44.2333]}, "properties": {"harcon_id": "8417134", "id": "8417134", "name": "Gardiner", "state": "ME"}, "id": 110}, {"type": "Feature", "geometry": {"type": "Point", "coordinates": [-69.785, 43.755]}, "properties": {"harcon_id": "8418150", "id": "8417177", "name": "Fort Popham, Hunniwell Point", "state": "ME"}, "id": 111}, {"type": "Feature", "geometry": {"type": "Point", "coordinates": [-69.7983, 44.0883]}, "properties": {"harcon_id": "8417208", "id": "8417208", "name": "Richmond", "state": "ME"}, "id": 112}, {"type": "Feature", "geometry": {"type": "Point", "coordinates": [-69.81, 43.8183]}, "properties": {"harcon_id": "8418150", "id": "8417221", "name": "Phippsburg", "state": "ME"}, "id": 113}, {"type": "Feature", "geometry": {"type": "Point", "coordinates": [-69.815, 43.925]}, "properties": {"harcon_id": "8418150", "id": "8417227", "name": "Bath", "state": "ME"}, "id": 114}, {"type": "Feature", "geometry": {"type": "Point", "coordinates": [-69.835, 43.9817]}, "properties": {"harcon_id": "8418150", "id": "8417271", "name": "Sturgeon Island, Merrymeeting Bay", "state": "ME"}, "id": 115}, {"type": "Feature", "geometry": {"type": "Point", "coordinates": [-69.8833, 43.89]}, "properties": {"harcon_id": "8418150", "id": "8417367", "name": "Howard Point, New Meadows River", "state": "ME"}, "id": 116}, {"type": "Feature", "geometry": {"type": "Point", "coordinates": [-69.8883, 43.95]}, "properties": {"harcon_id": "8418150", "id": "8417377", "name": "Androscoggin River entrance", "state": "ME"}, "id": 117}, {"type": "Feature", "geometry": {"type": "Point", "coordinates": [-69.8933, 43.7883]}, "properties": {"harcon_id": "8418150", "id": "8417387", "name": "Cundy Harbor, New Meadows River", "state": "ME"}, "id": 118}, {"type": "Feature", "geometry": {"type": "Point", "coordinates": [-69.895, 44.0083]}, "properties": {"harcon_id": "8418150", "id": "8417391", "name": "Bowdoinham, Cathance River", "state": "ME"}, "id": 119}, {"type": "Feature", "geometry": {"type": "Point", "coordinates": [-69.9633, 43.9217]}, "properties": {"harcon_id": "8418150", "id": "8417527", "name": "Brunswick, Androscoggin River", "state": "ME"}, "id": 120}, {"type": "Feature", "geometry": {"type": "Point", "coordinates": [-69.9767, 43.825]}, "properties": {"harcon_id": "8418150", "id": "8417553", "name": "Wilson Cove, Middle Bay", "state": "ME"}, "id": 121}, {"type": "Feature", "geometry": {"type": "Point", "coordinates": [-70.0233, 43.7383]}, "properties": {"harcon_id": "8418150", "id": "8417647", "name": "South Harpswell, Potts Harbor", "state": "ME"}, "id": 122}, {"type": "Feature", "geometry": {"type": "Point", "coordinates": [-70.1033, 43.82]}, "properties": {"harcon_id": "8418150", "id": "8417801", "name": "South Freeport", "state": "ME"}, "id": 123}, {"type": "Feature", "geometry": {"type": "Point", "coordinates": [-70.11, 43.695]}, "properties": {"harcon_id": "8418150", "id": "8417821", "name": "Cliff Island, Luckse Sound", "state": "ME"}, "id": 124}, {"type": "Feature", "geometry": {"type": "Point", "coordinates": [-70.14, 43.7517]}, "properties": {"harcon_id": "8418150", "id": "8417874", "name": "Doyle Point", "state": "ME"}, "id": 125}, {"type": "Feature", "geometry": {"type": "Point", "coordinates": [-70.1417, 43.7217]}, "properties": {"harcon_id": "8418150", "id": "8417881", "name": "Great Chebeague Island", "state": "ME"}, "id": 126}, {"type": "Feature", "geometry": {"type": "Point", "coordinates": [-70.155, 43.6767]}, "properties": {"harcon_id": "8418150", "id": "8417911", "name": "Vaill Island", "state": "ME"}, "id": 127}, {"type": "Feature", "geometry": {"type": "Point", "coordinates": [-70.17, 43.69]}, "properties": {"harcon_id": "8418150", "id": "8417941", "name": "Long Island", "state": "ME"}, "id": 128}, {"type": "Feature", "geometry": {"type": "Point", "coordinates": [-70.1733, 43.7617]}, "properties": {"harcon_id": "8418150", "id": "8417948", "name": "Prince Point", "state": "ME"}, "id": 129}, {"type": "Feature", "geometry": {"type": "Point", "coordinates": [-70.2, 43.67]}, "properties": {"harcon_id": "8418150", "id": "8417988", "name": "Great Diamond Island", "state": "ME"}, "id": 130}, {"type": "Feature", "geometry": {"type": "Point", "coordinates": [-70.1983, 43.645]}, "properties": {"harcon_id": "8418150", "id": "8417997", "name": "Cushing Island", "state": "ME"}, "id": 131}, {"type": "Feature", "geometry": {"type": "Point", "coordinates": [-70.2, 43.655]}, "properties": {"harcon_id": "8418150", "id": "8418001", "name": "Peak Island", "state": "ME"}, "id": 132}, {"type": "Feature", "geometry": {"type": "Point", "coordinates": [-70.19, 43.69]}, "properties": {"harcon_id": "8418150", "id": "8418009", "name": "Cow Island", "state": "ME"}, "id": 133}, {"type": "Feature", "geometry": {"type": "Point", "coordinates": [-70.205, 43.7317]}, "properties": {"harcon_id": "8418150", "id": "8418015", "name": "Falmouth Foreside", "state": "ME"}, "id": 134}, {"type": "Feature", "geometry": {"type": "Point", "coordinates": [-70.2067, 43.6233]}, "properties": {"harcon_id": "8418150", "id": "8418031", "name": "Portland Head Light", "state": "ME"}, "id": 135}, {"type": "Feature", "geometry": {"type": "Point", "coordinates": [-70.2467, 43.6867]}, "properties": {"harcon_id": "8418150", "id": "8418137", "name": "Presumpscot River Bridge", "state": "ME"}, "id": 136}, {"type": "Feature", "geometry": {"type": "Point", "coordinates": [-70.255, 43.6767]}, "properties": {"harcon_id": "8418150", "id": "8418175", "name": "Back Cove", "state": "ME"}, "id": 137}, {"type": "Feature", "geometry": {"type": "Point", "coordinates": [-70.285, 43.6417]}, "properties": {"harcon_id": "8418150", "id": "8418268", "name": "Fore River", "state": "ME"}, "id": 138}, {"type": "Feature", "geometry": {"type": "Point", "coordinates": [-70.3667, 43.5167]}, "properties": {"harcon_id": "8418150", "id": "8418557", "name": "Old Orchard Beach", "state": "ME"}, "id": 139}, {"type": "Feature", "geometry": {"type": "Point", "coordinates": [-70.3817, 43.4617]}, "properties": {"harcon_id": "8418150", "id": "8418606", "name": "Camp Ellis, Saco River Entrance", "state": "ME"}, "id": 140}, {"type": "Feature", "geometry": {"type": "Point", "coordinates": [-70.4317, 43.3667]}, "properties": {"harcon_id": "8418150", "id": "8418772", "name": "Cape Porpoise", "state": "ME"}, "id": 141}, {"type": "Feature", "geometry": {"type": "Point", "coordinates": [-70.4467, 43.4917]}, "properties": {"harcon_id": "8418150", "id": "8418828", "name": "Biddeford, Saco River", "state": "ME"}, "id": 142}, {"type": "Feature", "geometry": {"type": "Point", "coordinates": [-70.4767, 43.3583]}, "properties": {"harcon_id": "8418150", "id": "8418911", "name": "Kennebunkport", "state": "ME"}, "id": 143}, {"type": "Feature", "geometry": {"type": "Point", "coordinates": [-70.56330555555556, 43.32]}, "properties": {"harcon_id": "8418150", "id": "8419317", "name": "Wells, Webhannet River", "state": "ME"}, "id": 144}, {"type": "Feature", "geometry": {"type": "Point", "coordinates": [-70.5933, 43.1667]}, "properties": {"harcon_id": "8418150", "id": "8419399", "name": "Cape Neddick", "state": "ME"}, "id": 145}, {"type": "Feature", "geometry": {"type": "Point", "coordinates": [-70.6417, 43.1317]}, "properties": {"harcon_id": "8418150", "id": "8419518", "name": "York Harbor", "state": "ME"}, "id": 146}, {"type": "Feature", "geometry": {"type": "Point", "coordinates": [-70.6383, 43.13]}, "properties": {"harcon_id": "8418150", "id": "8419528", "name": "Fort Point, York Harbor", "state": "ME"}, "id": 147}, {"type": "Feature", "geometry": {"type": "Point", "coordinates": [-70.6617, 43.085]}, "properties": {"harcon_id": "8418150", "id": "8419590", "name": "Seapoint, Cutts Island", "state": "ME"}, "id": 148}, {"type": "Feature", "geometry": {"type": "Point", "coordinates": [-70.6967, 43.0667]}, "properties": {"harcon_id": "8418150", "id": "8419688", "name": "Gerrish Island", "state": "ME"}, "id": 149}, {"type": "Feature", "geometry": {"type": "Point", "coordinates": [-70.7033, 43.0817]}, "properties": {"harcon_id": "8418150", "id": "8419807", "name": "Kittery Point", "state": "ME"}, "id": 150}, {"type": "Feature", "geometry": {"type": "Point", "coordinates": [-70.74169444444445, 43.08]}, "properties": {"harcon_id": "8418150", "id": "8419870", "name": "Seavey Island", "state": "ME"}, "id": 151}, {"type": "Feature", "geometry": {"type": "Point", "coordinates": [-70.825, 43.1917]}, "properties": {"harcon_id": "8418150", "id": "8419997", "name": "Salmon Falls River", "state": "ME"}, "id": 152}, {"type": "Feature", "geometry": {"type": "Point", "coordinates": [-70.8683, 43.1983]}, "properties": {"harcon_id": "8418150", "id": "8420411", "name": "Dover, Cocheco River", "state": "NH"}, "id": 153}, {"type": "Feature", "geometry": {"type": "Point", "coordinates": [-70.8333, 43.1217]}, "properties": {"harcon_id": "8418150", "id": "8421897", "name": "Dover Point", "state": "NH"}, "id": 154}, {"type": "Feature", "geometry": {"type": "Point", "coordinates": [-70.9133, 43.0533]}, "properties": {"harcon_id": "8418150", "id": "8422687", "name": "Squamscott River RR. Bridge", "state": "NH"}, "id": 155}, {"type": "Feature", "geometry": {"type": "Point", "coordinates": [-70.7633, 43.09]}, "properties": {"harcon_id": "8418150", "id": "8423635", "name": "Atlantic Heights", "state": "NH"}, "id": 156}, {"type": "Feature", "geometry": {"type": "Point", "coordinates": [-70.7517, 43.0783]}, "properties": {"harcon_id": "8418150", "id": "8423745", "name": "Portsmouth", "state": "NH"}, "id": 157}, {"type": "Feature", "geometry": {"type": "Point", "coordinates": [-70.71055603027344, 43.071388244628906]}, "properties": {"harcon_id": "8418150", "id": "8423898", "name": "Fort Point", "state": "NH"}, "id": 158}, {"type": "Feature", "geometry": {"type": "Point", "coordinates": [-70.7133, 43.0567]}, "properties": {"harcon_id": "8418150", "id": "8424601", "name": "Jaffrey Point", "state": "NH"}, "id": 159}, {"type": "Feature", "geometry": {"type": "Point", "coordinates": [-70.615, 42.9783]}, "properties": {"harcon_id": "8418150", "id": "8427031", "name": "Gosport Harbor, Isles of Shoals", "state": "NH"}, "id": 160}, {"type": "Feature", "geometry": {"type": "Point", "coordinates": [-70.8167, 42.895]}, "properties": {"harcon_id": "8418150", "id": "8429489", "name": "Hampton Harbor", "state": "NH"}, "id": 161}, {"type": "Feature", "geometry": {"type": "Point", "coordinates": [-70.9083, 42.8383]}, "properties": {"harcon_id": "8418150", "id": "8440273", "name": "Salisbury Point", "state": "MA"}, "id": 162}, {"type": "Feature", "geometry": {"type": "Point", "coordinates": [-70.9883, 42.825]}, "properties": {"harcon_id": "8418150", "id": "8440369", "name": "Merrimacport", "state": "MA"}, "id": 163}, {"type": "Feature", "geometry": {"type": "Point", "coordinates": [-70.82, 42.8167]}, "properties": {"harcon_id": "8418150", "id": "8440452", "name": "Plum Island, Merrimack River Entrance", "state": "MA"}, "id": 164}, {"type": "Feature", "geometry": {"type": "Point", "coordinates": [-70.8733, 42.815]}, "properties": {"harcon_id": "8418150", "id": "8440466", "name": "Newburyport", "state": "MA"}, "id": 165}, {"type": "Feature", "geometry": {"type": "Point", "coordinates": [-71.0767, 42.7633]}, "properties": {"harcon_id": "8418150", "id": "8440889", "name": "Riverside", "state": "MA"}, "id": 166}, {"type": "Feature", "geometry": {"type": "Point", "coordinates": [-70.78861111111111, 42.71013888888889]}, "properties": {"harcon_id": "8418150", "id": "8441241", "name": "Plum Island Sound (south end)", "state": "MA"}, "id": 167}, {"type": "Feature", "geometry": {"type": "Point", "coordinates": [-70.615, 42.6583]}, "properties": {"harcon_id": "8418150", "id": "8441551", "name": "Rockport", "state": "MA"}, "id": 168}, {"type": "Feature", "geometry": {"type": "Point", "coordinates": [-70.6767, 42.655]}, "properties": {"harcon_id": "8418150", "id": "8441571", "name": "Annisquam, Lobster Cove", "state": "MA"}, "id": 169}, {"type": "Feature", "geometry": {"type": "Point", "coordinates": [-70.7767, 42.6317]}, "properties": {"harcon_id": "8418150", "id": "8441771", "name": "Essex", "state": "MA"}, "id": 170}, {"type": "Feature", "geometry": {"type": "Point", "coordinates": [-70.66, 42.61]}, "properties": {"harcon_id": "8443970", "id": "8441841", "name": "Gloucester Harbor", "state": "MA"}, "id": 171}, {"type": "Feature", "geometry": {"type": "Point", "coordinates": [-70.8767, 42.5233]}, "properties": {"harcon_id": "8443970", "id": "8442645", "name": "Salem, Salem Harbor", "state": "MA"}, "id": 172}, {"type": "Feature", "geometry": {"type": "Point", "coordinates": [-70.9433, 42.4583]}, "properties": {"harcon_id": "8443970", "id": "8443187", "name": "Lynn, Lynn Harbor", "state": "MA"}, "id": 173}, {"type": "Feature", "geometry": {"type": "Point", "coordinates": [-71.0767, 42.395]}, "properties": {"harcon_id": "8443970", "id": "8443662", "name": "Amelia Earhart Dam, Mystic River", "state": "MA"}, "id": 174}, {"type": "Feature", "geometry": {"type": "Point", "coordinates": [-71.0233, 42.3867]}, "properties": {"harcon_id": "8443970", "id": "8443725", "name": "Chelsea St. Bridge, Chelsea River", "state": "MA"}, "id": 175}, {"type": "Feature", "geometry": {"type": "Point", "coordinates": [-71.055, 42.3717]}, "properties": {"harcon_id": "8443970", "id": "8443838", "name": "Charlestown, Charles River entrance", "state": "MA"}, "id": 176}, {"type": "Feature", "geometry": {"type": "Point", "coordinates": [-70.96, 42.3483]}, "properties": {"harcon_id": "8443970", "id": "8444012", "name": "Deer Island (south end)", "state": "MA"}, "id": 177}, {"type": "Feature", "geometry": {"type": "Point", "coordinates": [-70.8917, 42.3283]}, "properties": {"harcon_id": "8443970", "id": "8444162", "name": "Boston Light", "state": "MA"}, "id": 178}, {"type": "Feature", "geometry": {"type": "Point", "coordinates": [-70.9917, 42.3083]}, "properties": {"harcon_id": "8443970", "id": "8444312", "name": "Moon Head", "state": "MA"}, "id": 179}, {"type": "Feature", "geometry": {"type": "Point", "coordinates": [-70.92, 42.3033]}, "properties": {"harcon_id": "8443970", "id": "8444351", "name": "Hull", "state": "MA"}, "id": 180}, {"type": "Feature", "geometry": {"type": "Point", "coordinates": [-71.04, 42.285]}, "properties": {"harcon_id": "8443970", "id": "8444488", "name": "Neponset, Neponset River", "state": "MA"}, "id": 181}, {"type": "Feature", "geometry": {"type": "Point", "coordinates": [-70.9533, 42.28]}, "properties": {"harcon_id": "8443970", "id": "8444525", "name": "Nut Island, Quincy Bay", "state": "MA"}, "id": 182}, {"type": "Feature", "geometry": {"type": "Point", "coordinates": [-70.86, 42.27]}, "properties": {"harcon_id": "8443970", "id": "8444601", "name": "Nantasket Beach, Weir River", "state": "MA"}, "id": 183}, {"type": "Feature", "geometry": {"type": "Point", "coordinates": [-70.8933, 42.2617]}, "properties": {"harcon_id": "8443970", "id": "8444662", "name": "Crow Point, Hingham Harbor entrance", "state": "MA"}, "id": 184}, {"type": "Feature", "geometry": {"type": "Point", "coordinates": [-70.785, 42.2483]}, "properties": {"harcon_id": "8443970", "id": "8444762", "name": "Cohasset Harbor (White Head)", "state": "MA"}, "id": 185}, {"type": "Feature", "geometry": {"type": "Point", "coordinates": [-70.885, 42.2467]}, "properties": {"harcon_id": "8443970", "id": "8444775", "name": "Hingham", "state": "MA"}, "id": 186}, {"type": "Feature", "geometry": {"type": "Point", "coordinates": [-70.9667, 42.2483]}, "properties": {"harcon_id": "8443970", "id": "8444788", "name": "Weymouth Fore River Bridge", "state": "MA"}, "id": 187}, {"type": "Feature", "geometry": {"type": "Point", "coordinates": [-70.7267, 42.2017]}, "properties": {"harcon_id": "8443970", "id": "8445138", "name": "Scituate, Scituate Harbor", "state": "MA"}, "id": 188}, {"type": "Feature", "geometry": {"type": "Point", "coordinates": [-70.7333, 42.16]}, "properties": {"harcon_id": "8443970", "id": "8445425", "name": "Damons Point, North River", "state": "MA"}, "id": 189}, {"type": "Feature", "geometry": {"type": "Point", "coordinates": [-70.6467, 42.0833]}, "properties": {"harcon_id": "8443970", "id": "8446009", "name": "Brant Rock, Green Harbor River", "state": "MA"}, "id": 190}, {"type": "Feature", "geometry": {"type": "Point", "coordinates": [-70.18215833333333, 42.04959166666666]}, "properties": {"harcon_id": "8443970", "id": "8446121", "name": "Provincetown", "state": "MA"}, "id": 191}, {"type": "Feature", "geometry": {"type": "Point", "coordinates": [-70.67, 42.0383]}, "properties": {"harcon_id": "8443970", "id": "8446166", "name": "Duxbury, Duxbury Harbor", "state": "MA"}, "id": 192}, {"type": "Feature", "geometry": {"type": "Point", "coordinates": [-70.6617, 41.96]}, "properties": {"harcon_id": "8443970", "id": "8446493", "name": "Plymouth", "state": "MA"}, "id": 193}, {"type": "Feature", "geometry": {"type": "Point", "coordinates": [-70.0417, 41.93]}, "properties": {"harcon_id": "8443970", "id": "8446613", "name": "Wellfleet", "state": "MA"}, "id": 194}, {"type": "Feature", "geometry": {"type": "Point", "coordinates": [-70.535, 41.775]}, "properties": {"harcon_id": "8443970", "id": "8447173", "name": "Cape Cod Canal, Sagamore", "state": "MA"}, "id": 195}, {"type": "Feature", "geometry": {"type": "Point", "coordinates": [-70.5067, 41.7717]}, "properties": {"harcon_id": "8443970", "id": "8447180", "name": "Sandwich Marina, Cape Cod Canal, east entrance", "state": "MA"}, "id": 196}, {"type": "Feature", "geometry": {"type": "Point", "coordinates": [-70.5617, 41.77]}, "properties": {"harcon_id": "8443970", "id": "8447191", "name": "Cape Cod Canal, Bournedale", "state": "MA"}, "id": 197}, {"type": "Feature", "geometry": {"type": "Point", "coordinates": [-70.155, 41.7517]}, "properties": {"harcon_id": "8443970", "id": "8447241", "name": "Sesuit Harbor, East Dennis", "state": "MA"}, "id": 198}, {"type": "Feature", "geometry": {"type": "Point", "coordinates": [-70.5933, 41.745]}, "properties": {"harcon_id": "8443970", "id": "8447259", "name": "Cape Cod Canal, Bourne Bridge", "state": "MA"}, "id": 199}, {"type": "Feature", "geometry": {"type": "Point", "coordinates": [-70.6167, 41.7417]}, "properties": {"harcon_id": "8452660", "id": "8447270", "name": "Cape Cod Canal, RR. bridge", "state": "MA"}, "id": 200}, {"type": "Feature", "geometry": {"type": "Point", "coordinates": [-70.6583, 41.7417]}, "properties": {"harcon_id": "8452660", "id": "8447277", "name": "Onset Beach, Onset Bay", "state": "MA"}, "id": 201}, {"type": "Feature", "geometry": {"type": "Point", "coordinates": [-71.1317, 41.74]}, "properties": {"harcon_id": "8452660", "id": "8447281", "name": "Steep Brook, Taunton River", "state": "MA"}, "id": 202}, {"type": "Feature", "geometry": {"type": "Point", "coordinates": [-69.9817, 41.7367]}, "properties": {"harcon_id": "8443970", "id": "8447291", "name": "Pleasant Bay", "state": "MA"}, "id": 203}, {"type": "Feature", "geometry": {"type": "Point", "coordinates": [-70.6233, 41.735]}, "properties": {"harcon_id": "8452660", "id": "8447295", "name": "Gray Gables", "state": "MA"}, "id": 204}, {"type": "Feature", "geometry": {"type": "Point", "coordinates": [-70.285, 41.7217]}, "properties": {"harcon_id": "8443970", "id": "8447335", "name": "Barnstable Harbor, Beach Point", "state": "MA"}, "id": 205}, {"type": "Feature", "geometry": {"type": "Point", "coordinates": [-70.6167, 41.715]}, "properties": {"harcon_id": "8452660", "id": "8447355", "name": "Monument Beach", "state": "MA"}, "id": 206}, {"type": "Feature", "geometry": {"type": "Point", "coordinates": [-70.715, 41.7117]}, "properties": {"harcon_id": "8452660", "id": "8447368", "name": "Great Hill", "state": "MA"}, "id": 207}, {"type": "Feature", "geometry": {"type": "Point", "coordinates": [-70.7617, 41.705]}, "properties": {"harcon_id": "8452660", "id": "8447385", "name": "Marion, Sippican Harbor", "state": "MA"}, "id": 208}, {"type": "Feature", "geometry": {"type": "Point", "coordinates": [-71.16411111111111, 41.70430555555556]}, "properties": {"harcon_id": "8452660", "id": "8447386", "name": "Fall River, Massachusetts", "state": "MA"}, "id": 209}, {"type": "Feature", "geometry": {"type": "Point", "coordinates": [-70.72, 41.695]}, "properties": {"harcon_id": "8452660", "id": "8447416", "name": "Piney Point", "state": "MA"}, "id": 210}, {"type": "Feature", "geometry": {"type": "Point", "coordinates": [-69.9508333, 41.6880556]}, "properties": {"harcon_id": "8443970", "id": "8447435", "name": "Chatham Harbor, Aunt Lydias Cove", "state": "MA"}, "id": 211}, {"type": "Feature", "geometry": {"type": "Point", "coordinates": [-67.76, 41.6883]}, "properties": {"harcon_id": "8443970", "id": "8447436", "name": "Georges Shoal, Texas Tower", "state": "MA"}, "id": 212}, {"type": "Feature", "geometry": {"type": "Point", "coordinates": [-70.0567, 41.6683]}, "properties": {"harcon_id": "8443970", "id": "8447495", "name": "Saquatucket Harbor", "state": "MA"}, "id": 213}, {"type": "Feature", "geometry": {"type": "Point", "coordinates": [-70.1833, 41.665]}, "properties": {"harcon_id": "8443970", "id": "8447504", "name": "South Yarmouth, Bass River", "state": "MA"}, "id": 214}, {"type": "Feature", "geometry": {"type": "Point", "coordinates": [-69.9667, 41.6667]}, "properties": {"harcon_id": "8443970", "id": "8447505", "name": "Chatham, Stage Harbor", "state": "MA"}, "id": 215}, {"type": "Feature", "geometry": {"type": "Point", "coordinates": [-70.065, 41.665]}, "properties": {"harcon_id": "8443970", "id": "8447506", "name": "Wychmere Harbor", "state": "MA"}, "id": 216}, {"type": "Feature", "geometry": {"type": "Point", "coordinates": [-70.115, 41.6583]}, "properties": {"harcon_id": "8443970", "id": "8447525", "name": "Dennisport", "state": "MA"}, "id": 217}, {"type": "Feature", "geometry": {"type": "Point", "coordinates": [-70.8133, 41.6567]}, "properties": {"harcon_id": "8452660", "id": "8447531", "name": "Mattapoisett, Mattapoisett Harbor", "state": "MA"}, "id": 218}, {"type": "Feature", "geometry": {"type": "Point", "coordinates": [-70.9183, 41.64]}, "properties": {"harcon_id": "8452660", "id": "8447584", "name": "New Bedford", "state": "MA"}, "id": 219}, {"type": "Feature", "geometry": {"type": "Point", "coordinates": [-70.3, 41.6317]}, "properties": {"harcon_id": "8447605", "id": "8447605", "name": "Hyannis Port", "state": "MA"}, "id": 220}, {"type": "Feature", "geometry": {"type": "Point", "coordinates": [-70.4367, 41.6083]}, "properties": {"harcon_id": "8443970", "id": "8447675", "name": "Cotuit Highlands", "state": "MA"}, "id": 221}, {"type": "Feature", "geometry": {"type": "Point", "coordinates": [-70.9, 41.5933]}, "properties": {"harcon_id": "8452660", "id": "8447712", "name": "Clarks Point", "state": "MA"}, "id": 222}, {"type": "Feature", "geometry": {"type": "Point", "coordinates": [-70.4633, 41.5867]}, "properties": {"harcon_id": "8443970", "id": "8447742", "name": "Poponesset Island, Poponesset Bay", "state": "MA"}, "id": 223}, {"type": "Feature", "geometry": {"type": "Point", "coordinates": [-71.0733, 41.57]}, "properties": {"harcon_id": "8452660", "id": "8447791", "name": "Hix Bridge, East Branch", "state": "MA"}, "id": 224}, {"type": "Feature", "geometry": {"type": "Point", "coordinates": [-70.9283, 41.5383]}, "properties": {"harcon_id": "8452660", "id": "8447842", "name": "Round Hill Point", "state": "MA"}, "id": 225}, {"type": "Feature", "geometry": {"type": "Point", "coordinates": [-70.5933, 41.545]}, "properties": {"harcon_id": "8443970", "id": "8447865", "name": "Falmouth Heights", "state": "MA"}, "id": 226}, {"type": "Feature", "geometry": {"type": "Point", "coordinates": [-70.67111206054688, 41.52361297607422]}, "properties": {"harcon_id": "8447930", "id": "8447930", "name": "OCEANOGRAPHIC INSTITUTION", "state": "MA"}, "id": 227}, {"type": "Feature", "geometry": {"type": "Point", "coordinates": [-70.665, 41.52]}, "properties": {"harcon_id": "8452660", "id": "8447939", "name": "Little Harbor", "state": "MA"}, "id": 228}, {"type": "Feature", "geometry": {"type": "Point", "coordinates": [-70.7083, 41.52]}, "properties": {"harcon_id": "8452660", "id": "8447941", "name": "Uncatena Island (south side)", "state": "MA"}, "id": 229}, {"type": "Feature", "geometry": {"type": "Point", "coordinates": [-71.0933, 41.5083]}, "properties": {"harcon_id": "8452660", "id": "8447975", "name": "Westport Harbor", "state": "MA"}, "id": 230}, {"type": "Feature", "geometry": {"type": "Point", "coordinates": [-70.555, 41.4583]}, "properties": {"harcon_id": "8452660", "id": "8448208", "name": "Oak Bluffs", "state": "MA"}, "id": 231}, {"type": "Feature", "geometry": {"type": "Point", "coordinates": [-70.9217, 41.45]}, "properties": {"harcon_id": "8452660", "id": "8448248", "name": "Penikese Island", "state": "MA"}, "id": 232}, {"type": "Feature", "geometry": {"type": "Point", "coordinates": [-70.8567, 41.4483]}, "properties": {"harcon_id": "8452660", "id": "8448251", "name": "Quicks Hole, North side", "state": "MA"}, "id": 233}, {"type": "Feature", "geometry": {"type": "Point", "coordinates": [-70.6967, 41.435]}, "properties": {"harcon_id": "8452660", "id": "8448325", "name": "Cedar Tree Neck", "state": "MA"}, "id": 234}, {"type": "Feature", "geometry": {"type": "Point", "coordinates": [-70.9167, 41.425]}, "properties": {"harcon_id": "8452660", "id": "8448376", "name": "Cuttyhunk", "state": "MA"}, "id": 235}, {"type": "Feature", "geometry": {"type": "Point", "coordinates": [-70.5117, 41.3883]}, "properties": {"harcon_id": "8443970", "id": "8448558", "name": "Edgartown", "state": "MA"}, "id": 236}, {"type": "Feature", "geometry": {"type": "Point", "coordinates": [-70.0467, 41.3867]}, "properties": {"harcon_id": "8443970", "id": "8448566", "name": "Great Point", "state": "MA"}, "id": 237}, {"type": "Feature", "geometry": {"type": "Point", "coordinates": [-70.45, 41.3633]}, "properties": {"harcon_id": "8452660", "id": "8448683", "name": "Wasque Point, Chappaquiddick Island", "state": "MA"}, "id": 238}, {"type": "Feature", "geometry": {"type": "Point", "coordinates": [-70.76783333333333, 41.35444444444445]}, "properties": {"harcon_id": "8448725", "id": "8448725", "name": "Menemsha Harbor, MA", "state": "MA"}, "id": 239}, {"type": "Feature", "geometry": {"type": "Point", "coordinates": [-70.83, 41.3533]}, "properties": {"harcon_id": "8452660", "id": "8448733", "name": "Gay Head", "state": "MA"}, "id": 240}, {"type": "Feature", "geometry": {"type": "Point", "coordinates": [-70.305, 41.3367]}, "properties": {"harcon_id": "8443970", "id": "8448817", "name": "Muskeget Island, north side", "state": "MA"}, "id": 241}, {"type": "Feature", "geometry": {"type": "Point", "coordinates": [-70.7683, 41.3117]}, "properties": {"harcon_id": "8452660", "id": "8448942", "name": "Squibnocket Point", "state": "MA"}, "id": 242}, {"type": "Feature", "geometry": {"type": "Point", "coordinates": [-70.2083, 41.2917]}, "properties": {"harcon_id": "8443970", "id": "8449062", "name": "Eel Point", "state": "MA"}, "id": 243}, {"type": "Feature", "geometry": {"type": "Point", "coordinates": [-70.09638977050781, 41.2852783203125]}, "properties": {"harcon_id": "8449130", "id": "8449130", "name": "NANTUCKET", "state": "MA"}, "id": 244}, {"type": "Feature", "geometry": {"type": "Point", "coordinates": [-70.8183, 41.2617]}, "properties": {"harcon_id": "8452660", "id": "8449287", "name": "Nomans Land", "state": "MA"}, "id": 245}, {"type": "Feature", "geometry": {"type": "Point", "coordinates": [-71.21, 41.6517]}, "properties": {"harcon_id": "8452660", "id": "8450898", "name": "North End, Bay Oil pier", "state": "RI"}, "id": 246}, {"type": "Feature", "geometry": {"type": "Point", "coordinates": [-71.2117, 41.6383]}, "properties": {"harcon_id": "8452660", "id": "8450948", "name": "Anthony Point", "state": "RI"}, "id": 247}, {"type": "Feature", "geometry": {"type": "Point", "coordinates": [-71.2033, 41.6183]}, "properties": {"harcon_id": "8452660", "id": "8450954", "name": "Nannaquaket Neck", "state": "RI"}, "id": 248}, {"type": "Feature", "geometry": {"type": "Point", "coordinates": [-71.2367, 41.5583]}, "properties": {"harcon_id": "8452660", "id": "8451301", "name": "The Glen", "state": "RI"}, "id": 249}, {"type": "Feature", "geometry": {"type": "Point", "coordinates": [-71.2383, 41.4867]}, "properties": {"harcon_id": "8452660", "id": "8451351", "name": "Sachuest, Flint Point", "state": "RI"}, "id": 250}, {"type": "Feature", "geometry": {"type": "Point", "coordinates": [-71.255, 41.6367]}, "properties": {"harcon_id": "8452660", "id": "8451552", "name": "Bristol Ferry", "state": "RI"}, "id": 251}, {"type": "Feature", "geometry": {"type": "Point", "coordinates": [-71.28, 41.6683]}, "properties": {"harcon_id": "8452660", "id": "8451929", "name": "Bristol, Bristol Harbor", "state": "RI"}, "id": 252}, {"type": "Feature", "geometry": {"type": "Point", "coordinates": [-71.29329681396484, 41.69670104980469]}, "properties": {"harcon_id": "8452154", "id": "8452154", "name": "Bristol Highlands", "state": "RI"}, "id": 253}, {"type": "Feature", "geometry": {"type": "Point", "coordinates": [-71.3217, 41.58]}, "properties": {"harcon_id": "8452660", "id": "8452555", "name": "Prudence Island, (south end)", "state": "RI"}, "id": 254}, {"type": "Feature", "geometry": {"type": "Point", "coordinates": [-71.3267, 41.505]}, "properties": {"harcon_id": "8452660", "id": "8452660", "name": "NEWPORT", "state": "RI"}, "id": 255}, {"type": "Feature", "geometry": {"type": "Point", "coordinates": [-71.34333333333333, 41.71666666666667]}, "properties": {"harcon_id": "8452944", "id": "8452944", "name": "Conimicut Light", "state": "RI"}, "id": 256}, {"type": "Feature", "geometry": {"type": "Point", "coordinates": [-71.3517, 41.7517]}, "properties": {"harcon_id": "8452660", "id": "8453033", "name": "Bay Spring, Bullock Cove", "state": "RI"}, "id": 257}, {"type": "Feature", "geometry": {"type": "Point", "coordinates": [-71.3617, 41.4633]}, "properties": {"harcon_id": "8452660", "id": "8453201", "name": "Castle Hill", "state": "RI"}, "id": 258}, {"type": "Feature", "geometry": {"type": "Point", "coordinates": [-71.3733, 41.84]}, "properties": {"harcon_id": "8452660", "id": "8453433", "name": "Rumford, Seekonk River", "state": "RI"}, "id": 259}, {"type": "Feature", "geometry": {"type": "Point", "coordinates": [-71.3717, 41.5733]}, "properties": {"harcon_id": "8452660", "id": "8453465", "name": "Conanicut Point", "state": "RI"}, "id": 260}, {"type": "Feature", "geometry": {"type": "Point", "coordinates": [-71.38, 41.8683]}, "properties": {"harcon_id": "8452660", "id": "8453611", "name": "Pawtucket, Seekonk River", "state": "RI"}, "id": 261}, {"type": "Feature", "geometry": {"type": "Point", "coordinates": [-71.3867, 41.4967]}, "properties": {"harcon_id": "8452660", "id": "8453742", "name": "West Jamestown, Dutch Island Harbor", "state": "RI"}, "id": 262}, {"type": "Feature", "geometry": {"type": "Point", "coordinates": [-71.3883, 41.7617]}, "properties": {"harcon_id": "8452660", "id": "8453767", "name": "Pawtuxet, Pawtuxet Cove", "state": "RI"}, "id": 263}, {"type": "Feature", "geometry": {"type": "Point", "coordinates": [-71.4017, 41.4517]}, "properties": {"harcon_id": "8452660", "id": "8453999", "name": "Beavertail Point", "state": "RI"}, "id": 264}, {"type": "Feature", "geometry": {"type": "Point", "coordinates": [-71.411, 41.5868]}, "properties": {"harcon_id": "8454049", "id": "8454049", "name": "Quonset Point", "state": "RI"}, "id": 265}, {"type": "Feature", "geometry": {"type": "Point", "coordinates": [-71.4283, 41.46]}, "properties": {"harcon_id": "8452660", "id": "8454341", "name": "Watson Pier, Boston Neck", "state": "RI"}, "id": 266}, {"type": "Feature", "geometry": {"type": "Point", "coordinates": [-71.445, 41.5717]}, "properties": {"harcon_id": "8452660", "id": "8454538", "name": "Wickford", "state": "RI"}, "id": 267}, {"type": "Feature", "geometry": {"type": "Point", "coordinates": [-71.44499969482422, 41.665000915527344]}, "properties": {"harcon_id": "8454578", "id": "8454578", "name": "East Greenwich", "state": "RI"}, "id": 268}, {"type": "Feature", "geometry": {"type": "Point", "coordinates": [-71.455, 41.4217]}, "properties": {"harcon_id": "8452660", "id": "8454658", "name": "Narragansett Pier", "state": "RI"}, "id": 269}, {"type": "Feature", "geometry": {"type": "Point", "coordinates": [-71.49, 41.3633]}, "properties": {"harcon_id": "8452660", "id": "8455083", "name": "Point Judith, Harbor of Refuge", "state": "RI"}, "id": 270}, {"type": "Feature", "geometry": {"type": "Point", "coordinates": [-71.24169921875, 41.707801818847656]}, "properties": {"harcon_id": "8455137", "id": "8455137", "name": "KICKAMUIT RIVER", "state": ""}, "id": 271}, {"type": "Feature", "geometry": {"type": "Point", "coordinates": [-71.8317, 41.3817]}, "properties": {"harcon_id": "8461490", "id": "8455189", "name": "Westerly, Pawcatuck River", "state": "RI"}, "id": 272}, {"type": "Feature", "geometry": {"type": "Point", "coordinates": [-71.7617, 41.3283]}, "properties": {"harcon_id": "8452660", "id": "8458022", "name": "Weekapaug Point, Block Island Sound", "state": "RI"}, "id": 273}, {"type": "Feature", "geometry": {"type": "Point", "coordinates": [-71.86, 41.305]}, "properties": {"harcon_id": "8452660", "id": "8458694", "name": "Watch Hill Point", "state": "RI"}, "id": 274}, {"type": "Feature", "geometry": {"type": "Point", "coordinates": [-71.5567, 41.1733]}, "properties": {"harcon_id": "8452660", "id": "8459338", "name": "Block Island (Old Harbor)", "state": "RI"}, "id": 275}, {"type": "Feature", "geometry": {"type": "Point", "coordinates": [-71.61, 41.1633]}, "properties": {"harcon_id": "8452660", "id": "8459681", "name": "Southwest Point, Block Island", "state": "RI"}, "id": 276}, {"type": "Feature", "geometry": {"type": "Point", "coordinates": [-71.9749984741211, 41.343299865722656]}, "properties": {"harcon_id": "8460751", "id": "8460751", "name": "WEST MYSTIC, MYSTIC RIVER", "state": ""}, "id": 277}, {"type": "Feature", "geometry": {"type": "Point", "coordinates": [-72.0783, 41.5233]}, "properties": {"harcon_id": "8461490", "id": "8461392", "name": "Norwich", "state": "CT"}, "id": 278}, {"type": "Feature", "geometry": {"type": "Point", "coordinates": [-72.0933, 41.43]}, "properties": {"harcon_id": "8461490", "id": "8461467", "name": "Yale boathouse", "state": "CT"}, "id": 279}, {"type": "Feature", "geometry": {"type": "Point", "coordinates": [-72.1867, 41.325]}, "properties": {"harcon_id": "8461490", "id": "8461925", "name": "Niantic, Niantic River", "state": "CT"}, "id": 280}, {"type": "Feature", "geometry": {"type": "Point", "coordinates": [-72.3433, 41.2633]}, "properties": {"harcon_id": "8461490", "id": "8462723", "name": "Saybrook Jetty", "state": "CT"}, "id": 281}, {"type": "Feature", "geometry": {"type": "Point", "coordinates": [-72.35, 41.2833]}, "properties": {"harcon_id": "8461490", "id": "8462752", "name": "Saybrook Point", "state": "CT"}, "id": 282}, {"type": "Feature", "geometry": {"type": "Point", "coordinates": [-72.35, 41.3217]}, "properties": {"harcon_id": "8461490", "id": "8462764", "name": "Lyme, highway bridge", "state": "CT"}, "id": 283}, {"type": "Feature", "geometry": {"type": "Point", "coordinates": [-72.385, 41.3483]}, "properties": {"harcon_id": "8461490", "id": "8462925", "name": "Essex", "state": "CT"}, "id": 284}, {"type": "Feature", "geometry": {"type": "Point", "coordinates": [-72.4283, 41.42]}, "properties": {"harcon_id": "8461490", "id": "8463155", "name": "Hadlyme", "state": "CT"}, "id": 285}, {"type": "Feature", "geometry": {"type": "Point", "coordinates": [-72.465, 41.4517]}, "properties": {"harcon_id": "8461490", "id": "8463348", "name": "Tylerville", "state": "CT"}, "id": 286}, {"type": "Feature", "geometry": {"type": "Point", "coordinates": [-72.475, 41.2733]}, "properties": {"harcon_id": "8467150", "id": "8463409", "name": "Westbrook, Duck Island Roads", "state": "CT"}, "id": 287}, {"type": "Feature", "geometry": {"type": "Point", "coordinates": [-72.5067, 41.4817]}, "properties": {"harcon_id": "8461490", "id": "8463582", "name": "Haddam", "state": "CT"}, "id": 288}, {"type": "Feature", "geometry": {"type": "Point", "coordinates": [-72.5517, 41.5417]}, "properties": {"harcon_id": "8461490", "id": "8463827", "name": "Maromas", "state": "CT"}, "id": 289}, {"type": "Feature", "geometry": {"type": "Point", "coordinates": [-72.5533, 41.5033]}, "properties": {"harcon_id": "8461490", "id": "8463836", "name": "Higganum Creek", "state": "CT"}, "id": 290}, {"type": "Feature", "geometry": {"type": "Point", "coordinates": [-72.59, 41.27]}, "properties": {"harcon_id": "8467150", "id": "8464041", "name": "Madison", "state": "CT"}, "id": 291}, {"type": "Feature", "geometry": {"type": "Point", "coordinates": [-72.63, 41.6633]}, "properties": {"harcon_id": "8461490", "id": "8464255", "name": "Rocky Hill", "state": "CT"}, "id": 292}, {"type": "Feature", "geometry": {"type": "Point", "coordinates": [-72.645, 41.56]}, "properties": {"harcon_id": "8461490", "id": "8464336", "name": "Middletown", "state": "CT"}, "id": 293}, {"type": "Feature", "geometry": {"type": "Point", "coordinates": [-72.6583, 41.755]}, "properties": {"harcon_id": "8461490", "id": "8464418", "name": "South Hartford", "state": "CT"}, "id": 294}, {"type": "Feature", "geometry": {"type": "Point", "coordinates": [-72.6667, 41.2717]}, "properties": {"harcon_id": "8467150", "id": "8464445", "name": "Guilford Harbor", "state": "CT"}, "id": 295}, {"type": "Feature", "geometry": {"type": "Point", "coordinates": [-72.6683, 41.77]}, "properties": {"harcon_id": "8461490", "id": "8464464", "name": "Hartford", "state": "CT"}, "id": 296}, {"type": "Feature", "geometry": {"type": "Point", "coordinates": [-72.7083, 41.245]}, "properties": {"harcon_id": "8467150", "id": "8464687", "name": "Sachem Head", "state": "CT"}, "id": 297}, {"type": "Feature", "geometry": {"type": "Point", "coordinates": [-72.8183, 41.2617]}, "properties": {"harcon_id": "8467150", "id": "8465233", "name": "Branford, Branford River", "state": "CT"}, "id": 298}, {"type": "Feature", "geometry": {"type": "Point", "coordinates": [-72.905, 41.2517]}, "properties": {"harcon_id": "8467150", "id": "8465692", "name": "Lighthouse Point, New Haven Harbor", "state": "CT"}, "id": 299}, {"type": "Feature", "geometry": {"type": "Point", "coordinates": [-72.9083, 41.2833]}, "properties": {"harcon_id": "8467150", "id": "8465705", "name": "New Haven Harbor, New Haven Reach", "state": "CT"}, "id": 300}, {"type": "Feature", "geometry": {"type": "Point", "coordinates": [-73.0417, 41.205]}, "properties": {"harcon_id": "8467150", "id": "8466375", "name": "Gulf Beach", "state": "CT"}, "id": 301}, {"type": "Feature", "geometry": {"type": "Point", "coordinates": [-73.055, 41.2183]}, "properties": {"harcon_id": "8467150", "id": "8466442", "name": "Milford Harbor", "state": "CT"}, "id": 302}, {"type": "Feature", "geometry": {"type": "Point", "coordinates": [-73.0717, 41.3017]}, "properties": {"harcon_id": "8467150", "id": "8466573", "name": "Shelton", "state": "CT"}, "id": 303}, {"type": "Feature", "geometry": {"type": "Point", "coordinates": [-73.0883, 41.275]}, "properties": {"harcon_id": "8467150", "id": "8466664", "name": "Long Hill", "state": "CT"}, "id": 304}, {"type": "Feature", "geometry": {"type": "Point", "coordinates": [-73.1133, 41.1867]}, "properties": {"harcon_id": "8467150", "id": "8466791", "name": "Sniffens Point", "state": "CT"}, "id": 305}, {"type": "Feature", "geometry": {"type": "Point", "coordinates": [-73.1117, 41.2033]}, "properties": {"harcon_id": "8467150", "id": "8466797", "name": "Stratford, I-95 bridge", "state": "CT"}, "id": 306}, {"type": "Feature", "geometry": {"type": "Point", "coordinates": [-73.36830139160156, 41.119998931884766]}, "properties": {"harcon_id": "8468191", "id": "8468191", "name": "SAUGATUCK, SAUGATUCK RIVER", "state": ""}, "id": 307}, {"type": "Feature", "geometry": {"type": "Point", "coordinates": [-73.415, 41.0967]}, "properties": {"harcon_id": "8467150", "id": "8468448", "name": "South Norwalk", "state": "CT"}, "id": 308}, {"type": "Feature", "geometry": {"type": "Point", "coordinates": [-73.445, 41.065]}, "properties": {"harcon_id": "8467150", "id": "8468609", "name": "Rowayton, Fivemile River", "state": "CT"}, "id": 309}, {"type": "Feature", "geometry": {"type": "Point", "coordinates": [-73.48, 41.0383]}, "properties": {"harcon_id": "8467150", "id": "8468799", "name": "Long Neck Point", "state": "CT"}, "id": 310}, {"type": "Feature", "geometry": {"type": "Point", "coordinates": [-73.5967, 41.0167]}, "properties": {"harcon_id": "8467150", "id": "8469549", "name": "Cos Cob Harbor", "state": "CT"}, "id": 311}, {"type": "Feature", "geometry": {"type": "Point", "coordinates": [-71.935, 41.0733]}, "properties": {"harcon_id": "8461490", "id": "8510448", "name": "Lake Montauk", "state": "NY"}, "id": 312}, {"type": "Feature", "geometry": {"type": "Point", "coordinates": [-71.9367, 41.075]}, "properties": {"harcon_id": "8461490", "id": "8510502", "name": "Montauk Harbor entrance", "state": "NY"}, "id": 313}, {"type": "Feature", "geometry": {"type": "Point", "coordinates": [-71.9594444, 41.0483333]}, "properties": {"harcon_id": "8510560", "id": "8510560", "name": "MONTAUK, FORT POND BAY", "state": "NY"}, "id": 314}, {"type": "Feature", "geometry": {"type": "Point", "coordinates": [-72.03, 41.2567]}, "properties": {"harcon_id": "8461490", "id": "8510719", "name": "Silver Eel Pond, Fishers Island, N.Y.", "state": "NY"}, "id": 315}, {"type": "Feature", "geometry": {"type": "Point", "coordinates": [-72.1017, 41.2067]}, "properties": {"harcon_id": "8461490", "id": "8510884", "name": "Little Gull Island", "state": "NY"}, "id": 316}, {"type": "Feature", "geometry": {"type": "Point", "coordinates": [-72.19, 41.035]}, "properties": {"harcon_id": "8461490", "id": "8511171", "name": "Threemile Harbor entrance, Gardiners Bay", "state": "NY"}, "id": 317}, {"type": "Feature", "geometry": {"type": "Point", "coordinates": [-72.205, 41.1717]}, "properties": {"harcon_id": "8461490", "id": "8511236", "name": "Plum Gut Harbor, Plum Island", "state": "NY"}, "id": 318}, {"type": "Feature", "geometry": {"type": "Point", "coordinates": [-72.3067, 41.1367]}, "properties": {"harcon_id": "8461490", "id": "8511671", "name": "Orient", "state": "NY"}, "id": 319}, {"type": "Feature", "geometry": {"type": "Point", "coordinates": [-72.3317, 40.995]}, "properties": {"harcon_id": "8461490", "id": "8511779", "name": "Noyack Bay", "state": "NY"}, "id": 320}, {"type": "Feature", "geometry": {"type": "Point", "coordinates": [-72.3983, 41.095]}, "properties": {"harcon_id": "8467150", "id": "8512053", "name": "Hashamomuck Beach", "state": "NY"}, "id": 321}, {"type": "Feature", "geometry": {"type": "Point", "coordinates": [-72.4133, 41.06]}, "properties": {"harcon_id": "8461490", "id": "8512114", "name": "Southold", "state": "NY"}, "id": 322}, {"type": "Feature", "geometry": {"type": "Point", "coordinates": [-72.4717, 40.9917]}, "properties": {"harcon_id": "8461490", "id": "8512328", "name": "New Suffolk", "state": "NY"}, "id": 323}, {"type": "Feature", "geometry": {"type": "Point", "coordinates": [-72.5617, 41.015]}, "properties": {"harcon_id": "8512668", "id": "8512668", "name": "Mattituck Inlet", "state": "NY"}, "id": 324}, {"type": "Feature", "geometry": {"type": "Point", "coordinates": [-72.5617, 40.82]}, "properties": {"harcon_id": "8531680", "id": "8512671", "name": "Shinnecock Bay entrance", "state": "NY"}, "id": 325}, {"type": "Feature", "geometry": {"type": "Point", "coordinates": [-72.5817, 40.935]}, "properties": {"harcon_id": "8461490", "id": "8512735", "name": "South Jamesport", "state": "NY"}, "id": 326}, {"type": "Feature", "geometry": {"type": "Point", "coordinates": [-72.58661111111111, 40.81855555555556]}, "properties": {"harcon_id": "8531680", "id": "8512769", "name": "Shinnecock Yacht Club, Penniman Creek", "state": "NY"}, "id": 327}, {"type": "Feature", "geometry": {"type": "Point", "coordinates": [-72.645, 40.9817]}, "properties": {"harcon_id": "8467150", "id": "8512987", "name": "Northville", "state": "NY"}, "id": 328}, {"type": "Feature", "geometry": {"type": "Point", "coordinates": [-72.75, 40.7867]}, "properties": {"harcon_id": "8513388", "id": "8513388", "name": "Moriches Coast Guard Station", "state": "NY"}, "id": 329}, {"type": "Feature", "geometry": {"type": "Point", "coordinates": [-72.75597222222223, 40.76441666666667]}, "properties": {"harcon_id": "8513398", "id": "8513398", "name": "Moriches Inlet", "state": "NY"}, "id": 330}, {"type": "Feature", "geometry": {"type": "Point", "coordinates": [-72.8683, 40.7383]}, "properties": {"harcon_id": "8531680", "id": "8513825", "name": "Smith Point Bridge, Narrow Bay", "state": "NY"}, "id": 331}, {"type": "Feature", "geometry": {"type": "Point", "coordinates": [-73.0, 40.75]}, "properties": {"harcon_id": "8531680", "id": "8514322", "name": "Patchogue", "state": "NY"}, "id": 332}, {"type": "Feature", "geometry": {"type": "Point", "coordinates": [-73.04, 40.9633]}, "properties": {"harcon_id": "8467150", "id": "8514421", "name": "Mount Sinai Harbor", "state": "NY"}, "id": 333}, {"type": "Feature", "geometry": {"type": "Point", "coordinates": [-73.0433, 40.965]}, "properties": {"harcon_id": "8467150", "id": "8514422", "name": "Cedar Beach", "state": "NY"}, "id": 334}, {"type": "Feature", "geometry": {"type": "Point", "coordinates": [-73.0767, 40.95]}, "properties": {"harcon_id": "8467150", "id": "8514560", "name": "Port Jefferson", "state": "NY"}, "id": 335}, {"type": "Feature", "geometry": {"type": "Point", "coordinates": [-73.0917, 40.9717]}, "properties": {"harcon_id": "8467150", "id": "8514594", "name": "Port Jefferson Harbor entrance", "state": "NY"}, "id": 336}, {"type": "Feature", "geometry": {"type": "Point", "coordinates": [-73.1517, 40.7233]}, "properties": {"harcon_id": "8531680", "id": "8514783", "name": "Great River, Connetquot River", "state": "NY"}, "id": 337}, {"type": "Feature", "geometry": {"type": "Point", "coordinates": [-73.205, 40.6567]}, "properties": {"harcon_id": "8531680", "id": "8514961", "name": "West Fire Island", "state": "NY"}, "id": 338}, {"type": "Feature", "geometry": {"type": "Point", "coordinates": [-73.22, 40.635]}, "properties": {"harcon_id": "8531680", "id": "8515014", "name": "Fire Island Light", "state": "NY"}, "id": 339}, {"type": "Feature", "geometry": {"type": "Point", "coordinates": [-73.24, 40.7167]}, "properties": {"harcon_id": "8531680", "id": "8515102", "name": "Bay Shore, Watchogue Creek Entrance", "state": "NY"}, "id": 340}, {"type": "Feature", "geometry": {"type": "Point", "coordinates": [-73.2933, 40.6333]}, "properties": {"harcon_id": "8531680", "id": "8515228", "name": "Democrat Point, Fire Island Inlet", "state": "NY"}, "id": 341}, {"type": "Feature", "geometry": {"type": "Point", "coordinates": [-73.295, 40.64]}, "properties": {"harcon_id": "8531680", "id": "8515336", "name": "Oak Beach", "state": "NY"}, "id": 342}, {"type": "Feature", "geometry": {"type": "Point", "coordinates": [-73.315, 40.685]}, "properties": {"harcon_id": "8531680", "id": "8515421", "name": "Babylon", "state": "NY"}, "id": 343}, {"type": "Feature", "geometry": {"type": "Point", "coordinates": [-73.3533, 40.9]}, "properties": {"harcon_id": "8467150", "id": "8515586", "name": "Northport, Northport Bay", "state": "NY"}, "id": 344}, {"type": "Feature", "geometry": {"type": "Point", "coordinates": [-73.395, 40.62]}, "properties": {"harcon_id": "8531680", "id": "8515764", "name": "Gilgo Heading", "state": "NY"}, "id": 345}, {"type": "Feature", "geometry": {"type": "Point", "coordinates": [-73.4, 40.9533]}, "properties": {"harcon_id": "8467150", "id": "8515786", "name": "Eatons Neck Point", "state": "NY"}, "id": 346}, {"type": "Feature", "geometry": {"type": "Point", "coordinates": [-73.4183, 40.655]}, "properties": {"harcon_id": "8531680", "id": "8515864", "name": "Amityville", "state": "NY"}, "id": 347}, {"type": "Feature", "geometry": {"type": "Point", "coordinates": [-73.4317, 40.91]}, "properties": {"harcon_id": "8467150", "id": "8515921", "name": "Lloyd Harbor, Huntington Bay", "state": "NY"}, "id": 348}, {"type": "Feature", "geometry": {"type": "Point", "coordinates": [-73.4683, 40.6667]}, "properties": {"harcon_id": "8531680", "id": "8516055", "name": "Biltmore Shores, South Oyster Bay", "state": "NY"}, "id": 349}, {"type": "Feature", "geometry": {"type": "Point", "coordinates": [-73.47, 40.8733]}, "properties": {"harcon_id": "8467150", "id": "8516061", "name": "Cold Spring Harbor", "state": "NY"}, "id": 350}, {"type": "Feature", "geometry": {"type": "Point", "coordinates": [-73.5017, 40.6233]}, "properties": {"harcon_id": "8531680", "id": "8516155", "name": "Green Island", "state": "NY"}, "id": 351}, {"type": "Feature", "geometry": {"type": "Point", "coordinates": [-73.5167, 40.8667]}, "properties": {"harcon_id": "8467150", "id": "8516201", "name": "Oyster Bay Harbor", "state": "NY"}, "id": 352}, {"type": "Feature", "geometry": {"type": "Point", "coordinates": [-73.52, 40.6633]}, "properties": {"harcon_id": "8531680", "id": "8516211", "name": "Bellmore, Bellmore Creek", "state": "NY"}, "id": 353}, {"type": "Feature", "geometry": {"type": "Point", "coordinates": [-73.5233, 40.62]}, "properties": {"harcon_id": "8531680", "id": "8516221", "name": "Cuba Island", "state": "NY"}, "id": 354}, {"type": "Feature", "geometry": {"type": "Point", "coordinates": [-73.525, 40.6033]}, "properties": {"harcon_id": "8531680", "id": "8516225", "name": "Deep Creek Meadow", "state": "NY"}, "id": 355}, {"type": "Feature", "geometry": {"type": "Point", "coordinates": [-73.55, 40.9033]}, "properties": {"harcon_id": "8467150", "id": "8516299", "name": "Bayville Bridge", "state": "NY"}, "id": 356}, {"type": "Feature", "geometry": {"type": "Point", "coordinates": [-73.555, 40.6233]}, "properties": {"harcon_id": "8531680", "id": "8516315", "name": "Neds Creek", "state": "NY"}, "id": 357}, {"type": "Feature", "geometry": {"type": "Point", "coordinates": [-73.5783, 40.5867]}, "properties": {"harcon_id": "8531680", "id": "8516385", "name": "Jones Inlet (Point Lookout)", "state": "NY"}, "id": 358}, {"type": "Feature", "geometry": {"type": "Point", "coordinates": [-73.5867, 40.6333]}, "properties": {"harcon_id": "8531680", "id": "8516411", "name": "Freeport, Baldwin Bay", "state": "NY"}, "id": 359}, {"type": "Feature", "geometry": {"type": "Point", "coordinates": [-73.65, 40.6]}, "properties": {"harcon_id": "8531680", "id": "8516601", "name": "Long Beach (Inside)", "state": "NY"}, "id": 360}, {"type": "Feature", "geometry": {"type": "Point", "coordinates": [-73.655, 40.8633]}, "properties": {"harcon_id": "8516945", "id": "8516614", "name": "Glen Cove, Hempstead Harbor", "state": "NY"}, "id": 361}, {"type": "Feature", "geometry": {"type": "Point", "coordinates": [-73.6983, 40.62]}, "properties": {"harcon_id": "8531680", "id": "8516745", "name": "Woodmere, Brosewere Bay", "state": "NY"}, "id": 362}, {"type": "Feature", "geometry": {"type": "Point", "coordinates": [-73.7033, 40.8317]}, "properties": {"harcon_id": "8516945", "id": "8516761", "name": "Port Washington, Manhasset Bay", "state": "NY"}, "id": 363}, {"type": "Feature", "geometry": {"type": "Point", "coordinates": [-73.7583, 40.6167]}, "properties": {"harcon_id": "8531680", "id": "8516925", "name": "Motts Basin", "state": "NY"}, "id": 364}, {"type": "Feature", "geometry": {"type": "Point", "coordinates": [-73.765, 40.81030555555556]}, "properties": {"harcon_id": "8516945", "id": "8516945", "name": "KINGS POINT", "state": "NY"}, "id": 365}, {"type": "Feature", "geometry": {"type": "Point", "coordinates": [-73.7817, 40.7933]}, "properties": {"harcon_id": "8516945", "id": "8516990", "name": "Willets Point", "state": "NY"}, "id": 366}, {"type": "Feature", "geometry": {"type": "Point", "coordinates": [-73.7833, 40.6233]}, "properties": {"harcon_id": "8531680", "id": "8516999", "name": "J.F.K. International Airport", "state": "NY"}, "id": 367}, {"type": "Feature", "geometry": {"type": "Point", "coordinates": [-73.8133, 40.7983]}, "properties": {"harcon_id": "8516945", "id": "8517125", "name": "Whitestone", "state": "NY"}, "id": 368}, {"type": "Feature", "geometry": {"type": "Point", "coordinates": [-73.82, 40.5883]}, "properties": {"harcon_id": "8531680", "id": "8517137", "name": "Beach Channel (bridge)", "state": "NY"}, "id": 369}, {"type": "Feature", "geometry": {"type": "Point", "coordinates": [-73.8567, 40.7833]}, "properties": {"harcon_id": "8516945", "id": "8517276", "name": "College Point, Flushing Bay", "state": "NY"}, "id": 370}, {"type": "Feature", "geometry": {"type": "Point", "coordinates": [-73.885, 40.63]}, "properties": {"harcon_id": "8531680", "id": "8517381", "name": "Canarsie", "state": "NY"}, "id": 371}, {"type": "Feature", "geometry": {"type": "Point", "coordinates": [-73.8883, 40.5783]}, "properties": {"harcon_id": "8531680", "id": "8517394", "name": "Barren Island, Rockaway Inlet", "state": "NY"}, "id": 372}, {"type": "Feature", "geometry": {"type": "Point", "coordinates": [-73.9217, 40.7867]}, "properties": {"harcon_id": "8518750", "id": "8517401", "name": "Hell Gate, Wards Island", "state": "NY"}, "id": 373}, {"type": "Feature", "geometry": {"type": "Point", "coordinates": [-73.9217, 40.6083]}, "properties": {"harcon_id": "8531680", "id": "8517519", "name": "Mill Basin", "state": "NY"}, "id": 374}, {"type": "Feature", "geometry": {"type": "Point", "coordinates": [-73.925, 40.585]}, "properties": {"harcon_id": "8531680", "id": "8517531", "name": "Plumb Beach Channel", "state": "NY"}, "id": 375}, {"type": "Feature", "geometry": {"type": "Point", "coordinates": [-73.9617, 40.74]}, "properties": {"harcon_id": "8518750", "id": "8517673", "name": "Hunters Point, Newtown Creek", "state": "NY"}, "id": 376}, {"type": "Feature", "geometry": {"type": "Point", "coordinates": [-73.975, 40.7067]}, "properties": {"harcon_id": "8518750", "id": "8517732", "name": "Wallabout Bay, Brooklyn Navy Yard", "state": "NY"}, "id": 377}, {"type": "Feature", "geometry": {"type": "Point", "coordinates": [-73.9833, 40.57]}, "properties": {"harcon_id": "8531680", "id": "8517741", "name": "Coney Island", "state": "NY"}, "id": 378}, {"type": "Feature", "geometry": {"type": "Point", "coordinates": [-73.9983, 40.59]}, "properties": {"harcon_id": "8531680", "id": "8517811", "name": "Norton Point, Gravesend Bay", "state": "NY"}, "id": 379}, {"type": "Feature", "geometry": {"type": "Point", "coordinates": [-73.995, 40.7033]}, "properties": {"harcon_id": "8518750", "id": "8517847", "name": "Brooklyn Bridge", "state": "NY"}, "id": 380}, {"type": "Feature", "geometry": {"type": "Point", "coordinates": [-74.0133, 40.665]}, "properties": {"harcon_id": "8518750", "id": "8517921", "name": "Gowanus Bay", "state": "NY"}, "id": 381}, {"type": "Feature", "geometry": {"type": "Point", "coordinates": [-74.035, 40.6083]}, "properties": {"harcon_id": "8531680", "id": "8517942", "name": "Fort Hamilton, The Narrows", "state": "NY"}, "id": 382}, {"type": "Feature", "geometry": {"type": "Point", "coordinates": [-73.6717, 40.9617]}, "properties": {"harcon_id": "8516945", "id": "8518091", "name": "Rye Beach", "state": "NY"}, "id": 383}, {"type": "Feature", "geometry": {"type": "Point", "coordinates": [-73.7817, 40.8933]}, "properties": {"harcon_id": "8516945", "id": "8518490", "name": "New Rochelle", "state": "NY"}, "id": 384}, {"type": "Feature", "geometry": {"type": "Point", "coordinates": [-73.8733, 40.8]}, "properties": {"harcon_id": "8516945", "id": "8518621", "name": "Hunts Point", "state": "NY"}, "id": 385}, {"type": "Feature", "geometry": {"type": "Point", "coordinates": [-73.8983, 40.7983]}, "properties": {"harcon_id": "8516945", "id": "8518635", "name": "North Brother Island", "state": "NY"}, "id": 386}, {"type": "Feature", "geometry": {"type": "Point", "coordinates": [-73.9067, 40.8017]}, "properties": {"harcon_id": "8516945", "id": "8518639", "name": "Port Morris (Stony Point)", "state": "NY"}, "id": 387}, {"type": "Feature", "geometry": {"type": "Point", "coordinates": [-73.9417, 40.7767]}, "properties": {"harcon_id": "8518750", "id": "8518668", "name": "Horns Hook, East 90th Street", "state": "NY"}, "id": 388}, {"type": "Feature", "geometry": {"type": "Point", "coordinates": [-73.9583, 40.7583]}, "properties": {"harcon_id": "8518750", "id": "8518687", "name": "Queensboro Bridge", "state": "NY"}, "id": 389}, {"type": "Feature", "geometry": {"type": "Point", "coordinates": [-73.9683, 40.7467]}, "properties": {"harcon_id": "8518750", "id": "8518695", "name": "East 41st Street, New York City", "state": "NY"}, "id": 390}, {"type": "Feature", "geometry": {"type": "Point", "coordinates": [-73.9683, 40.7117]}, "properties": {"harcon_id": "8518750", "id": "8518699", "name": "Williamsburg Bridge", "state": "NY"}, "id": 391}, {"type": "Feature", "geometry": {"type": "Point", "coordinates": [-74.0141667, 40.7005556]}, "properties": {"harcon_id": "8518750", "id": "8518750", "name": "NEW YORK (The Battery)", "state": "NY"}, "id": 392}, {"type": "Feature", "geometry": {"type": "Point", "coordinates": [-73.925, 40.8783]}, "properties": {"harcon_id": "8518750", "id": "8518903", "name": "Spuyten Duyvil Creek ent., N.Y.", "state": "NY"}, "id": 393}, {"type": "Feature", "geometry": {"type": "Point", "coordinates": [-73.9167, 40.9033]}, "properties": {"harcon_id": "8518750", "id": "8518905", "name": "Riverdale, N.Y.", "state": "NY"}, "id": 394}, {"type": "Feature", "geometry": {"type": "Point", "coordinates": [-73.87, 41.0783]}, "properties": {"harcon_id": "8518750", "id": "8518919", "name": "Tarrytown", "state": "NY"}, "id": 395}, {"type": "Feature", "geometry": {"type": "Point", "coordinates": [-73.9633, 41.2183]}, "properties": {"harcon_id": "8518750", "id": "8518924", "name": "Haverstraw", "state": "NY"}, "id": 396}, {"type": "Feature", "geometry": {"type": "Point", "coordinates": [-74.0067, 41.5]}, "properties": {"harcon_id": "8518750", "id": "8518935", "name": "Newburgh", "state": "NY"}, "id": 397}, {"type": "Feature", "geometry": {"type": "Point", "coordinates": [-73.95, 41.5833]}, "properties": {"harcon_id": "8518750", "id": "8518939", "name": "New Hamburg", "state": "NY"}, "id": 398}, {"type": "Feature", "geometry": {"type": "Point", "coordinates": [-73.9333, 41.7]}, "properties": {"harcon_id": "8518750", "id": "8518945", "name": "Poughkeepsie", "state": "NY"}, "id": 399}, {"type": "Feature", "geometry": {"type": "Point", "coordinates": [-73.9317, 41.2883]}, "properties": {"harcon_id": "8518750", "id": "8518949", "name": "Peekskill", "state": "NY"}, "id": 400}, {"type": "Feature", "geometry": {"type": "Point", "coordinates": [-73.9167, 42.0583]}, "properties": {"harcon_id": "8518750", "id": "8518964", "name": "Tivoli", "state": "NY"}, "id": 401}, {"type": "Feature", "geometry": {"type": "Point", "coordinates": [-73.8, 42.25]}, "properties": {"harcon_id": "8518750", "id": "8518974", "name": "Hudson", "state": "NY"}, "id": 402}, {"type": "Feature", "geometry": {"type": "Point", "coordinates": [-73.7667, 42.5333]}, "properties": {"harcon_id": "8518995", "id": "8518989", "name": "Castleton", "state": "NY"}, "id": 403}, {"type": "Feature", "geometry": {"type": "Point", "coordinates": [-73.9833, 41.9183]}, "properties": {"harcon_id": "8518750", "id": "8518993", "name": "Kingston", "state": "NY"}, "id": 404}, {"type": "Feature", "geometry": {"type": "Point", "coordinates": [-73.7467, 42.65]}, "properties": {"harcon_id": "8518995", "id": "8518995", "name": "ALBANY", "state": "NY"}, "id": 405}, {"type": "Feature", "geometry": {"type": "Point", "coordinates": [-74.055, 40.6067]}, "properties": {"harcon_id": "8531680", "id": "8519024", "name": "Fort Wadsworth, The Narrows", "state": "NY"}, "id": 406}, {"type": "Feature", "geometry": {"type": "Point", "coordinates": [-74.0733, 40.6433]}, "properties": {"harcon_id": "8518750", "id": "8519112", "name": "St. George, Staten Island", "state": "NY"}, "id": 407}, {"type": "Feature", "geometry": {"type": "Point", "coordinates": [-74.18, 40.645]}, "properties": {"harcon_id": "8531680", "id": "8519200", "name": "Port Ivory, Howland Hook, N.Y.", "state": "NY"}, "id": 408}, {"type": "Feature", "geometry": {"type": "Point", "coordinates": [-74.14169444444444, 40.63669444444444]}, "properties": {"harcon_id": "8519483", "id": "8519483", "name": "BAYONNE BRIDGE, STATEN ISLAND", "state": "NY"}, "id": 409}, {"type": "Feature", "geometry": {"type": "Point", "coordinates": [-74.2, 40.5117]}, "properties": {"harcon_id": "8531680", "id": "8519726", "name": "Princes Bay", "state": "NY"}, "id": 410}, {"type": "Feature", "geometry": {"type": "Point", "coordinates": [-74.2233, 40.5567]}, "properties": {"harcon_id": "8531680", "id": "8519789", "name": "Rossville, N.Y.", "state": "NY"}, "id": 411}, {"type": "Feature", "geometry": {"type": "Point", "coordinates": [-73.9183, 40.945]}, "properties": {"harcon_id": "8518750", "id": "8530095", "name": "Alpine, N.J.", "state": "NJ"}, "id": 412}, {"type": "Feature", "geometry": {"type": "Point", "coordinates": [-74.03, 40.935]}, "properties": {"harcon_id": "8518750", "id": "8530186", "name": "New Millford", "state": "NJ"}, "id": 413}, {"type": "Feature", "geometry": {"type": "Point", "coordinates": [-74.04, 40.88]}, "properties": {"harcon_id": "8518750", "id": "8530278", "name": "Hackensack", "state": "NJ"}, "id": 414}, {"type": "Feature", "geometry": {"type": "Point", "coordinates": [-74.03, 40.85]}, "properties": {"harcon_id": "8518750", "id": "8530398", "name": "Ridgefield Park", "state": "NJ"}, "id": 415}, {"type": "Feature", "geometry": {"type": "Point", "coordinates": [-74.12, 40.8467]}, "properties": {"harcon_id": "8518750", "id": "8530403", "name": "East Rutherford", "state": "NJ"}, "id": 416}, {"type": "Feature", "geometry": {"type": "Point", "coordinates": [-73.9783, 40.8133]}, "properties": {"harcon_id": "8518750", "id": "8530505", "name": "Edgewater, N.J.", "state": "NJ"}, "id": 417}, {"type": "Feature", "geometry": {"type": "Point", "coordinates": [-74.06, 40.8067]}, "properties": {"harcon_id": "8518750", "id": "8530528", "name": "Carlstadt, Garretts Reach", "state": "NJ"}, "id": 418}, {"type": "Feature", "geometry": {"type": "Point", "coordinates": [-74.0533, 40.805]}, "properties": {"harcon_id": "8518750", "id": "8530531", "name": "North Secaucus, Garretts Reach", "state": "NJ"}, "id": 419}, {"type": "Feature", "geometry": {"type": "Point", "coordinates": [-74.0917, 40.7933]}, "properties": {"harcon_id": "8518750", "id": "8530586", "name": "Fish Creek, Berrys Creek", "state": "NJ"}, "id": 420}, {"type": "Feature", "geometry": {"type": "Point", "coordinates": [-74.1467, 40.7867]}, "properties": {"harcon_id": "8518750", "id": "8530591", "name": "Belleville", "state": "NJ"}, "id": 421}, {"type": "Feature", "geometry": {"type": "Point", "coordinates": [-74.0183, 40.765]}, "properties": {"harcon_id": "8518750", "id": "8530645", "name": "Weehawken, Union City, N.J.", "state": "NJ"}, "id": 422}, {"type": "Feature", "geometry": {"type": "Point", "coordinates": [-74.0967, 40.7517]}, "properties": {"harcon_id": "8518750", "id": "8530696", "name": "Amtrak RR. swing bridge", "state": "NJ"}, "id": 423}, {"type": "Feature", "geometry": {"type": "Point", "coordinates": [-74.1167, 40.7317]}, "properties": {"harcon_id": "8518750", "id": "8530743", "name": "Point No Point", "state": "NJ"}, "id": 424}, {"type": "Feature", "geometry": {"type": "Point", "coordinates": [-74.1033, 40.7283]}, "properties": {"harcon_id": "8518750", "id": "8530772", "name": "Kearny Point", "state": "NJ"}, "id": 425}, {"type": "Feature", "geometry": {"type": "Point", "coordinates": [-74.14, 40.6733]}, "properties": {"harcon_id": "8518750", "id": "8530882", "name": "Port Elizabeth", "state": "NJ"}, "id": 426}, {"type": "Feature", "geometry": {"type": "Point", "coordinates": [-74.1333, 40.69]}, "properties": {"harcon_id": "8518750", "id": "8530884", "name": "Port Newark Terminal", "state": "NJ"}, "id": 427}, {"type": "Feature", "geometry": {"type": "Point", "coordinates": [-74.085, 40.655]}, "properties": {"harcon_id": "8518750", "id": "8530985", "name": "Constable Hook", "state": "NJ"}, "id": 428}, {"type": "Feature", "geometry": {"type": "Point", "coordinates": [-74.2317, 40.5983]}, "properties": {"harcon_id": "8531680", "id": "8531077", "name": "Rahway River, RR. Bridge", "state": "NJ"}, "id": 429}, {"type": "Feature", "geometry": {"type": "Point", "coordinates": [-74.21, 40.5867]}, "properties": {"harcon_id": "8531680", "id": "8531095", "name": "Carteret", "state": "NJ"}, "id": 430}, {"type": "Feature", "geometry": {"type": "Point", "coordinates": [-74.265, 40.545]}, "properties": {"harcon_id": "8531680", "id": "8531156", "name": "Woodbridge Creek, 0.8 n.mi. above entrance", "state": "NJ"}, "id": 431}, {"type": "Feature", "geometry": {"type": "Point", "coordinates": [-74.2817, 40.4917]}, "properties": {"harcon_id": "8531680", "id": "8531232", "name": "South Amboy", "state": "NJ"}, "id": 432}, {"type": "Feature", "geometry": {"type": "Point", "coordinates": [-74.2183, 40.4333]}, "properties": {"harcon_id": "8531680", "id": "8531526", "name": "Matawan Creek, Route 35 bridge", "state": "NJ"}, "id": 433}, {"type": "Feature", "geometry": {"type": "Point", "coordinates": [-74.1983, 40.44]}, "properties": {"harcon_id": "8531680", "id": "8531545", "name": "Keyport", "state": "NJ"}, "id": 434}, {"type": "Feature", "geometry": {"type": "Point", "coordinates": [-74.1433, 40.4483]}, "properties": {"harcon_id": "8531680", "id": "8531592", "name": "Waackaack Creek", "state": "NJ"}, "id": 435}, {"type": "Feature", "geometry": {"type": "Point", "coordinates": [-74.035, 40.4183]}, "properties": {"harcon_id": "8531680", "id": "8531662", "name": "Atlantic Highlands", "state": "NJ"}, "id": 436}, {"type": "Feature", "geometry": {"type": "Point", "coordinates": [-74.0094444, 40.4669444]}, "properties": {"harcon_id": "8531680", "id": "8531680", "name": "SANDY HOOK (Fort Hancock)", "state": "NJ"}, "id": 437}, {"type": "Feature", "geometry": {"type": "Point", "coordinates": [-73.9817, 40.3967]}, "properties": {"harcon_id": "8531680", "id": "8531712", "name": "Highlands, Route 36 bridge", "state": "NJ"}, "id": 438}, {"type": "Feature", "geometry": {"type": "Point", "coordinates": [-74.015, 40.3767]}, "properties": {"harcon_id": "8531680", "id": "8531753", "name": "Oceanic Bridge, Navesink River", "state": "NJ"}, "id": 439}, {"type": "Feature", "geometry": {"type": "Point", "coordinates": [-73.975, 40.365]}, "properties": {"harcon_id": "8531680", "id": "8531804", "name": "Sea Bright", "state": "NJ"}, "id": 440}, {"type": "Feature", "geometry": {"type": "Point", "coordinates": [-74.065, 40.355]}, "properties": {"harcon_id": "8531680", "id": "8531833", "name": "Red Bank, Navesink River", "state": "NJ"}, "id": 441}, {"type": "Feature", "geometry": {"type": "Point", "coordinates": [-74.0167, 40.3267]}, "properties": {"harcon_id": "8531680", "id": "8531925", "name": "Gooseneck Point, bridge", "state": "NJ"}, "id": 442}, {"type": "Feature", "geometry": {"type": "Point", "coordinates": [-73.9967, 40.325]}, "properties": {"harcon_id": "8531680", "id": "8531942", "name": "Long Branch Reach", "state": "NJ"}, "id": 443}, {"type": "Feature", "geometry": {"type": "Point", "coordinates": [-73.9767, 40.3033]}, "properties": {"harcon_id": "8531680", "id": "8531991", "name": "Long Branch (fishing pier)", "state": "NJ"}, "id": 444}, {"type": "Feature", "geometry": {"type": "Point", "coordinates": [-74.0383, 40.1917]}, "properties": {"harcon_id": "8531680", "id": "8532322", "name": "Shark River Hills", "state": "NJ"}, "id": 445}, {"type": "Feature", "geometry": {"type": "Point", "coordinates": [-74.0083, 40.185]}, "properties": {"harcon_id": "8531680", "id": "8532337", "name": "Belmar, Atlantic Ocean", "state": "NJ"}, "id": 446}, {"type": "Feature", "geometry": {"type": "Point", "coordinates": [-74.0267, 40.1867]}, "properties": {"harcon_id": "8531680", "id": "8532339", "name": "Shark River Island, fixed RR. bridge", "state": "NJ"}, "id": 447}, {"type": "Feature", "geometry": {"type": "Point", "coordinates": [-74.0467, 40.1783]}, "properties": {"harcon_id": "8531680", "id": "8532371", "name": "New Bedford", "state": "NJ"}, "id": 448}, {"type": "Feature", "geometry": {"type": "Point", "coordinates": [-74.055, 40.105]}, "properties": {"harcon_id": "8531680", "id": "8532585", "name": "Brielle, Route 35 bridge", "state": "NJ"}, "id": 449}, {"type": "Feature", "geometry": {"type": "Point", "coordinates": [-74.035, 40.1017]}, "properties": {"harcon_id": "8531680", "id": "8532591", "name": "Manasquan Inlet, USCG Station", "state": "NJ"}, "id": 450}, {"type": "Feature", "geometry": {"type": "Point", "coordinates": [-74.0867, 40.0967]}, "properties": {"harcon_id": "8531680", "id": "8532611", "name": "Riviera Beach", "state": "NJ"}, "id": 451}, {"type": "Feature", "geometry": {"type": "Point", "coordinates": [-74.135, 40.065]}, "properties": {"harcon_id": "8531680", "id": "8532703", "name": "Forge Pond", "state": "NJ"}, "id": 452}, {"type": "Feature", "geometry": {"type": "Point", "coordinates": [-74.0617, 40.0617]}, "properties": {"harcon_id": "8531680", "id": "8532715", "name": "Beaverdam Creek entrance", "state": "NJ"}, "id": 453}, {"type": "Feature", "geometry": {"type": "Point", "coordinates": [-74.0733, 40.0617]}, "properties": {"harcon_id": "8531680", "id": "8532716", "name": "Beaverdam Creek, inside", "state": "NJ"}, "id": 454}, {"type": "Feature", "geometry": {"type": "Point", "coordinates": [-74.1167, 40.0583]}, "properties": {"harcon_id": "8531680", "id": "8532721", "name": "Tall Pines Camp", "state": "NJ"}, "id": 455}, {"type": "Feature", "geometry": {"type": "Point", "coordinates": [-74.0533, 40.0367]}, "properties": {"harcon_id": "8531680", "id": "8532786", "name": "Mantoloking", "state": "NJ"}, "id": 456}, {"type": "Feature", "geometry": {"type": "Point", "coordinates": [-74.1133, 40.0133]}, "properties": {"harcon_id": "8531680", "id": "8532835", "name": "Kettle Creek, Green Island", "state": "NJ"}, "id": 457}, {"type": "Feature", "geometry": {"type": "Point", "coordinates": [-74.0683, 39.9883]}, "properties": {"harcon_id": "8531680", "id": "8532885", "name": "Ocean Beach", "state": "NJ"}, "id": 458}, {"type": "Feature", "geometry": {"type": "Point", "coordinates": [-74.1483, 39.9967]}, "properties": {"harcon_id": "8531680", "id": "8532921", "name": "Silver Bay, Silver Bay Marina", "state": "NJ"}, "id": 459}, {"type": "Feature", "geometry": {"type": "Point", "coordinates": [-74.115, 39.9633]}, "properties": {"harcon_id": "8531680", "id": "8533005", "name": "Goose Creek entrance", "state": "NJ"}, "id": 460}, {"type": "Feature", "geometry": {"type": "Point", "coordinates": [-74.19830322265625, 39.95000076293945]}, "properties": {"harcon_id": "8533051", "id": "8533051", "name": "Toms River (town), Toms River", "state": "NJ"}, "id": 461}, {"type": "Feature", "geometry": {"type": "Point", "coordinates": [-74.115, 39.9483]}, "properties": {"harcon_id": "8531680", "id": "8533055", "name": "Coates Point", "state": "NJ"}, "id": 462}, {"type": "Feature", "geometry": {"type": "Point", "coordinates": [-74.035, 39.9433]}, "properties": {"harcon_id": "8531680", "id": "8533071", "name": "Seaside Heights, ocean", "state": "NJ"}, "id": 463}, {"type": "Feature", "geometry": {"type": "Point", "coordinates": [-74.0833, 39.9217]}, "properties": {"harcon_id": "8531680", "id": "8533135", "name": "Seaside Park", "state": "NJ"}, "id": 464}, {"type": "Feature", "geometry": {"type": "Point", "coordinates": [-74.11, 39.9183]}, "properties": {"harcon_id": "8531680", "id": "8533141", "name": "Barnegat Pier", "state": "NJ"}, "id": 465}, {"type": "Feature", "geometry": {"type": "Point", "coordinates": [-74.1333, 39.905]}, "properties": {"harcon_id": "8531680", "id": "8533185", "name": "Sloop Creek", "state": "NJ"}, "id": 466}, {"type": "Feature", "geometry": {"type": "Point", "coordinates": [-74.155, 39.87]}, "properties": {"harcon_id": "8531680", "id": "8533295", "name": "Cedar Creek", "state": "NJ"}, "id": 467}, {"type": "Feature", "geometry": {"type": "Point", "coordinates": [-74.0883, 39.8517]}, "properties": {"harcon_id": "8531680", "id": "8533345", "name": "Island Beach", "state": "NJ"}, "id": 468}, {"type": "Feature", "geometry": {"type": "Point", "coordinates": [-74.1517, 39.845]}, "properties": {"harcon_id": "8531680", "id": "8533365", "name": "Stouts Creek", "state": "NJ"}, "id": 469}, {"type": "Feature", "geometry": {"type": "Point", "coordinates": [-74.1733, 39.825]}, "properties": {"harcon_id": "8531680", "id": "8533391", "name": "Forked River", "state": "NJ"}, "id": 470}, {"type": "Feature", "geometry": {"type": "Point", "coordinates": [-74.1883, 39.8083]}, "properties": {"harcon_id": "8531680", "id": "8533465", "name": "Oyster Creek", "state": "NJ"}, "id": 471}, {"type": "Feature", "geometry": {"type": "Point", "coordinates": [-74.0983, 39.7883]}, "properties": {"harcon_id": "8531680", "id": "8533535", "name": "Island Beach, Sedge Islands", "state": "NJ"}, "id": 472}, {"type": "Feature", "geometry": {"type": "Point", "coordinates": [-74.1817, 39.7917]}, "properties": {"harcon_id": "8531680", "id": "8533541", "name": "Waretown", "state": "NJ"}, "id": 473}, {"type": "Feature", "geometry": {"type": "Point", "coordinates": [-74.1283, 39.7567]}, "properties": {"harcon_id": "8531680", "id": "8533631", "name": "High Bar", "state": "NJ"}, "id": 474}, {"type": "Feature", "geometry": {"type": "Point", "coordinates": [-74.2017, 39.745]}, "properties": {"harcon_id": "8531680", "id": "8533665", "name": "Double Creek", "state": "NJ"}, "id": 475}, {"type": "Feature", "geometry": {"type": "Point", "coordinates": [-74.1367, 39.725]}, "properties": {"harcon_id": "8531680", "id": "8533738", "name": "Loveladies Harbor", "state": "NJ"}, "id": 476}, {"type": "Feature", "geometry": {"type": "Point", "coordinates": [-74.1917, 39.7067]}, "properties": {"harcon_id": "8531680", "id": "8533780", "name": "Flat Creek", "state": "NJ"}, "id": 477}, {"type": "Feature", "geometry": {"type": "Point", "coordinates": [-74.16, 39.675]}, "properties": {"harcon_id": "8531680", "id": "8533862", "name": "North Beach", "state": "NJ"}, "id": 478}, {"type": "Feature", "geometry": {"type": "Point", "coordinates": [-74.2317, 39.665]}, "properties": {"harcon_id": "8531680", "id": "8533905", "name": "Mill Creek, 1 n.mi. above entrance", "state": "NJ"}, "id": 479}, {"type": "Feature", "geometry": {"type": "Point", "coordinates": [-74.215, 39.6667]}, "properties": {"harcon_id": "8531680", "id": "8533909", "name": "Manahawkin Creek", "state": "NJ"}, "id": 480}, {"type": "Feature", "geometry": {"type": "Point", "coordinates": [-74.185, 39.6533]}, "properties": {"harcon_id": "8531680", "id": "8533935", "name": "Manahawkin Drawbridge", "state": "NJ"}, "id": 481}, {"type": "Feature", "geometry": {"type": "Point", "coordinates": [-74.2567, 39.6533]}, "properties": {"harcon_id": "8531680", "id": "8533941", "name": "Cedar Run", "state": "NJ"}, "id": 482}, {"type": "Feature", "geometry": {"type": "Point", "coordinates": [-74.27, 39.6567]}, "properties": {"harcon_id": "8531680", "id": "8533982", "name": "Dinner Point Creek, upper end", "state": "NJ"}, "id": 483}, {"type": "Feature", "geometry": {"type": "Point", "coordinates": [-74.2967, 39.6317]}, "properties": {"harcon_id": "8531680", "id": "8533987", "name": "West Creek, Westecunk Creek", "state": "NJ"}, "id": 484}, {"type": "Feature", "geometry": {"type": "Point", "coordinates": [-74.6417, 39.625]}, "properties": {"harcon_id": "8531680", "id": "8534002", "name": "Sweetwater, Mullica River Marina", "state": "NJ"}, "id": 485}, {"type": "Feature", "geometry": {"type": "Point", "coordinates": [-74.4967, 39.6183]}, "properties": {"harcon_id": "8531680", "id": "8534043", "name": "Wading River (town), Wading River", "state": "NJ"}, "id": 486}, {"type": "Feature", "geometry": {"type": "Point", "coordinates": [-74.2633, 39.6133]}, "properties": {"harcon_id": "8531680", "id": "8534044", "name": "Westecunk Creek entrance", "state": "NJ"}, "id": 487}, {"type": "Feature", "geometry": {"type": "Point", "coordinates": [-74.21, 39.6133]}, "properties": {"harcon_id": "8531680", "id": "8534048", "name": "Beach Haven Crest", "state": "NJ"}, "id": 488}, {"type": "Feature", "geometry": {"type": "Point", "coordinates": [-74.31, 39.6167]}, "properties": {"harcon_id": "8531680", "id": "8534049", "name": "Parker Run, upper end", "state": "NJ"}, "id": 489}, {"type": "Feature", "geometry": {"type": "Point", "coordinates": [-74.3417, 39.6017]}, "properties": {"harcon_id": "8531680", "id": "8534080", "name": "Tuckerton, Tuckerton Creek", "state": "NJ"}, "id": 490}, {"type": "Feature", "geometry": {"type": "Point", "coordinates": [-74.4417, 39.5917]}, "properties": {"harcon_id": "8531680", "id": "8534104", "name": "New Gretna, Bass River", "state": "NJ"}, "id": 491}, {"type": "Feature", "geometry": {"type": "Point", "coordinates": [-74.59, 39.6117]}, "properties": {"harcon_id": "8531680", "id": "8534117", "name": "Green Bank", "state": "NJ"}, "id": 492}, {"type": "Feature", "geometry": {"type": "Point", "coordinates": [-74.3317, 39.5767]}, "properties": {"harcon_id": "8531680", "id": "8534139", "name": "Tuckerton Creek entrance", "state": "NJ"}, "id": 493}, {"type": "Feature", "geometry": {"type": "Point", "coordinates": [-74.2567, 39.5483]}, "properties": {"harcon_id": "8531680", "id": "8534208", "name": "Beach Haven Coast Guard Station", "state": "NJ"}, "id": 494}, {"type": "Feature", "geometry": {"type": "Point", "coordinates": [-74.4617, 39.5483]}, "properties": {"harcon_id": "8531680", "id": "8534212", "name": "Chestnut Neck Boat Yard", "state": "NJ"}, "id": 495},